{"type":"FeatureCollection","features":[{"id":"0","type":"Feature","properties":{"cat":"rs","sector":"Health","name":"RSUD Johar Baru","kel":"TANAH TINGGI","kec":"JOHAR BARU"},"geometry":{"type":"Point","coordinates":[106.85011,-6.18186]}},{"id":"1","type":"Feature","properties":{"cat":"rs","sector":"Health","name":"RSUP Fatmawati","kel":"CILANDAK BARAT","kec":"CILANDAK"},"geometry":{"type":"Point","coordinates":[106.79656,-6.29485]}},{"id":"2","type":"Feature","properties":{"cat":"rs","sector":"Health","name":"RS Pusat Pertamina","kel":"GUNUNG","kec":"KEBAYORAN BARU"},"geometry":{"type":"Point","coordinates":[106.79331,-6.23992]}},{"id":"3","type":"Feature","properties":{"cat":"rs","sector":"Health","name":"RS Marinir Cilandak","kel":"CILANDAK TIMUR","kec":"PASAR MINGGU"},"geometry":{"type":"Point","coordinates":[106.81044,-6.30463]}},{"id":"4","type":"Feature","properties":{"cat":"rs","sector":"Health","name":"RS Jakarta","kel":"KARET SEMANGGI","kec":"SETIA BUDI"},"geometry":{"type":"Point","coordinates":[106.81614,-6.21843]}},{"id":"5","type":"Feature","properties":{"cat":"rs","sector":"Health","name":"RSK Kanker MRCCC Siloam Semanggi","kel":"KARET SEMANGGI","kec":"SETIA BUDI"},"geometry":{"type":"Point","coordinates":[106.81722,-6.21897]}},{"id":"6","type":"Feature","properties":{"cat":"rs","sector":"Health","name":"RS Jiwa Dharmawangsa","kel":"PULO","kec":"KEBAYORAN BARU"},"geometry":{"type":"Point","coordinates":[106.80062,-6.255]}},{"id":"7","type":"Feature","properties":{"cat":"rs","sector":"Health","name":"RS Dr. Suyoto Pusrehab Kemhan","kel":"BINTARO","kec":"PESANGGRAHAN"},"geometry":{"type":"Point","coordinates":[106.76636,-6.26856]}},{"id":"8","type":"Feature","properties":{"cat":"rs","sector":"Health","name":"RSIA Avisena","kel":"ULUJAMI","kec":"PESANGGRAHAN"},"geometry":{"type":"Point","coordinates":[106.76253,-6.23233]}},{"id":"9","type":"Feature","properties":{"cat":"rs","sector":"Health","name":"RSB Panti Nugeraha","kel":"MELAWAI","kec":"KEBAYORAN BARU"},"geometry":{"type":"Point","coordinates":[106.80148,-6.24466]}},{"id":"10","type":"Feature","properties":{"cat":"rs","sector":"Health","name":"RSB Budhi Jaya","kel":"MENTENG ATAS","kec":"SETIA BUDI"},"geometry":{"type":"Point","coordinates":[106.84504,-6.21879]}},{"id":"11","type":"Feature","properties":{"cat":"rs","sector":"Health","name":"RSIA Asih","kel":"MELAWAI","kec":"KEBAYORAN BARU"},"geometry":{"type":"Point","coordinates":[106.80081,-6.24775]}},{"id":"12","type":"Feature","properties":{"cat":"rs","sector":"Health","name":"RSKO Jakarta","kel":"CIBUBUR","kec":"CIRACAS"},"geometry":{"type":"Point","coordinates":[106.87254,-6.34609]}},{"id":"13","type":"Feature","properties":{"cat":"rs","sector":"Health","name":"RS Setia Mitra","kel":"CILANDAK BARAT","kec":"CILANDAK"},"geometry":{"type":"Point","coordinates":[106.79583,-6.28122]}},{"id":"14","type":"Feature","properties":{"cat":"rs","sector":"Health","name":"RS Tebet","kel":"TEBET BARAT","kec":"TEBET"},"geometry":{"type":"Point","coordinates":[106.84683,-6.24324]}},{"id":"15","type":"Feature","properties":{"cat":"rs","sector":"Health","name":"RS Pondok Indah","kel":"PONDOK PINANG","kec":"KEBAYORAN LAMA"},"geometry":{"type":"Point","coordinates":[106.78166,-6.28363]}},{"id":"16","type":"Feature","properties":{"cat":"rs","sector":"Health","name":"RS MMC","kel":"KARET KUNINGAN","kec":"SETIA BUDI"},"geometry":{"type":"Point","coordinates":[106.8323,-6.21998]}},{"id":"17","type":"Feature","properties":{"cat":"rs","sector":"Health","name":"RS THT Ciranjang","kel":"RAWA BARAT","kec":"KEBAYORAN BARU"},"geometry":{"type":"Point","coordinates":[106.81128,-6.23673]}},{"id":"18","type":"Feature","properties":{"cat":"rs","sector":"Health","name":"RSU Prikasih","kel":"PONDOK LABU","kec":"CILANDAK"},"geometry":{"type":"Point","coordinates":[106.79383,-6.31468]}},{"id":"19","type":"Feature","properties":{"cat":"rs","sector":"Health","name":"RSU Gandaria","kel":"KRAMAT PELA","kec":"KEBAYORAN BARU"},"geometry":{"type":"Point","coordinates":[106.79058,-6.24396]}},{"id":"20","type":"Feature","properties":{"cat":"rs","sector":"Health","name":"RS Agung","kel":"PASAR MANGGIS","kec":"SETIA BUDI"},"geometry":{"type":"Point","coordinates":[106.84642,-6.20903]}},{"id":"21","type":"Feature","properties":{"cat":"rs","sector":"Health","name":"RS Siaga Raya","kel":"PEJATEN BARAT","kec":"PASAR MINGGU"},"geometry":{"type":"Point","coordinates":[106.83923,-6.27303]}},{"id":"22","type":"Feature","properties":{"cat":"rs","sector":"Health","name":"RS Medistra","kel":"KUNINGAN TIMUR","kec":"SETIA BUDI"},"geometry":{"type":"Point","coordinates":[106.83379,-6.23966]}},{"id":"23","type":"Feature","properties":{"cat":"rs","sector":"Health","name":"RSU Tria Dipa","kel":"PANCORAN","kec":"PANCORAN"},"geometry":{"type":"Point","coordinates":[106.84193,-6.25087]}},{"id":"24","type":"Feature","properties":{"cat":"rs","sector":"Health","name":"RSGM Univ.Prof.Moestopo","kel":"BINTARO","kec":"PESANGGRAHAN"},"geometry":{"type":"Point","coordinates":[106.76513,-6.25916]}},{"id":"25","type":"Feature","properties":{"cat":"rs","sector":"Health","name":"RSU Zahirah","kel":"JAGAKARSA","kec":"JAGAKARSA"},"geometry":{"type":"Point","coordinates":[106.82363,-6.33577]}},{"id":"26","type":"Feature","properties":{"cat":"rs","sector":"Health","name":"RS Kartini","kel":null,"kec":null},"geometry":{"type":"Point","coordinates":[106.69979,-6.23831]}},{"id":"27","type":"Feature","properties":{"cat":"rs","sector":"Health","name":"RSIA Brawijaya Women and Children Hospital","kel":"CIPETE UTARA","kec":"KEBAYORAN BARU"},"geometry":{"type":"Point","coordinates":[106.80771,-6.25758]}},{"id":"28","type":"Feature","properties":{"cat":"rs","sector":"Health","name":"RS Jakarta Medical Center (JMC)","kel":"KALIBATA","kec":"PANCORAN"},"geometry":{"type":"Point","coordinates":[106.83026,-6.27122]}},{"id":"29","type":"Feature","properties":{"cat":"rs","sector":"Health","name":"RS Aulia","kel":"JAGAKARSA","kec":"JAGAKARSA"},"geometry":{"type":"Point","coordinates":[106.82725,-6.33442]}},{"id":"30","type":"Feature","properties":{"cat":"rs","sector":"Health","name":"RSIA Brawijaya Duren Tiga","kel":"PANCORAN","kec":"PANCORAN"},"geometry":{"type":"Point","coordinates":[106.84108,-6.25321]}},{"id":"31","type":"Feature","properties":{"cat":"rs","sector":"Health","name":"RS Murni Teguh Sudirman Jakarta","kel":"KARET TENGSIN","kec":"TANAH ABANG"},"geometry":{"type":"Point","coordinates":[106.81945,-6.20964]}},{"id":"32","type":"Feature","properties":{"cat":"rs","sector":"Health","name":"RSU Muhammadiyah Taman Puring","kel":"KRAMAT PELA","kec":"KEBAYORAN BARU"},"geometry":{"type":"Point","coordinates":[106.78721,-6.24151]}},{"id":"33","type":"Feature","properties":{"cat":"rs","sector":"Health","name":"RSU Andhika","kel":"CIGANJUR","kec":"JAGAKARSA"},"geometry":{"type":"Point","coordinates":[106.81417,-6.34432]}},{"id":"34","type":"Feature","properties":{"cat":"rs","sector":"Health","name":"RSIA Kemang Medical Care","kel":"RAGUNAN","kec":"PASAR MINGGU"},"geometry":{"type":"Point","coordinates":[106.81924,-6.28634]}},{"id":"35","type":"Feature","properties":{"cat":"rs","sector":"Health","name":"RS Yadika Kebayoran Lama","kel":"KEBAYORAN LAMA SELATAN","kec":"KEBAYORAN LAMA"},"geometry":{"type":"Point","coordinates":[106.77767,-6.25508]}},{"id":"36","type":"Feature","properties":{"cat":"rs","sector":"Health","name":"RS Bhayangkara Lemdiklat Polri","kel":"PONDOK PINANG","kec":"KEBAYORAN LAMA"},"geometry":{"type":"Point","coordinates":[106.77068,-6.28645]}},{"id":"37","type":"Feature","properties":{"cat":"rs","sector":"Health","name":"RS Mayapada","kel":"CILANDAK BARAT","kec":"CILANDAK"},"geometry":{"type":"Point","coordinates":[106.78621,-6.2985]}},{"id":"38","type":"Feature","properties":{"cat":"rs","sector":"Health","name":"RS Siloam TB Simatupang","kel":"CILANDAK BARAT","kec":"CILANDAK"},"geometry":{"type":"Point","coordinates":[106.7843,-6.29198]}},{"id":"39","type":"Feature","properties":{"cat":"rs","sector":"Health","name":"RSUD Tebet","kel":"TEBET BARAT","kec":"TEBET"},"geometry":{"type":"Point","coordinates":[106.84676,-6.23192]}},{"id":"40","type":"Feature","properties":{"cat":"rs","sector":"Health","name":"RSUD Pesanggrahan","kel":"PESANGGRAHAN","kec":"PESANGGRAHAN"},"geometry":{"type":"Point","coordinates":[106.75713,-6.25903]}},{"id":"41","type":"Feature","properties":{"cat":"rs","sector":"Health","name":"RSUD Jagakarsa","kel":"JAGAKARSA","kec":"JAGAKARSA"},"geometry":{"type":"Point","coordinates":[106.81139,-6.31622]}},{"id":"42","type":"Feature","properties":{"cat":"rs","sector":"Health","name":"RSUD Mampang Prapatan","kel":"MAMPANG PRAPATAN","kec":"MAMPANG PRAPATAN"},"geometry":{"type":"Point","coordinates":[106.82709,-6.24064]}},{"id":"43","type":"Feature","properties":{"cat":"rs","sector":"Health","name":"RSUP Persahabatan","kel":"PISANGAN TIMUR","kec":"PULO GADUNG"},"geometry":{"type":"Point","coordinates":[106.88477,-6.20406]}},{"id":"44","type":"Feature","properties":{"cat":"rs","sector":"Health","name":"RSUD Budhi Asih","kel":"CAWANG","kec":"KRAMAT JATI"},"geometry":{"type":"Point","coordinates":[106.863,-6.25622]}},{"id":"45","type":"Feature","properties":{"cat":"rs","sector":"Health","name":"RS Pengayoman Cipinang","kel":"CIPINANG BESAR UTARA","kec":"JATINEGARA"},"geometry":{"type":"Point","coordinates":[106.88376,-6.21489]}},{"id":"46","type":"Feature","properties":{"cat":"rs","sector":"Health","name":"RS Pusdikkes","kel":"KRAMAT JATI","kec":"KRAMAT JATI"},"geometry":{"type":"Point","coordinates":[106.86901,-6.27614]}},{"id":"47","type":"Feature","properties":{"cat":"rs","sector":"Health","name":"RSAU dr. Esnawan Antariksa","kel":"HALIM PERDANA KUSUMAH","kec":"MAKASAR"},"geometry":{"type":"Point","coordinates":[106.8893,-6.24556]}},{"id":"48","type":"Feature","properties":{"cat":"rs","sector":"Health","name":"RS Tk IV Cijantung","kel":"GEDONG","kec":"PASAR REBO"},"geometry":{"type":"Point","coordinates":[106.85891,-6.30696]}},{"id":"49","type":"Feature","properties":{"cat":"rs","sector":"Health","name":"RSU UKI","kel":"CAWANG","kec":"KRAMAT JATI"},"geometry":{"type":"Point","coordinates":[106.87111,-6.25014]}},{"id":"50","type":"Feature","properties":{"cat":"rs","sector":"Health","name":"RSUD Pasar Rebo","kel":"GEDONG","kec":"PASAR REBO"},"geometry":{"type":"Point","coordinates":[106.86184,-6.30311]}},{"id":"51","type":"Feature","properties":{"cat":"rs","sector":"Health","name":"RSIA Sayyidah","kel":"PONDOK KELAPA","kec":"DUREN SAWIT"},"geometry":{"type":"Point","coordinates":[106.93226,-6.23253]}},{"id":"52","type":"Feature","properties":{"cat":"rs","sector":"Health","name":"RS Premier Jatinegara","kel":"BALI MESTER","kec":"JATINEGARA"},"geometry":{"type":"Point","coordinates":[106.86636,-6.22171]}},{"id":"53","type":"Feature","properties":{"cat":"rs","sector":"Health","name":"RS Hermina Jatinegara","kel":"BUKIT DURI","kec":"TEBET"},"geometry":{"type":"Point","coordinates":[106.8621,-6.22036]}},{"id":"54","type":"Feature","properties":{"cat":"rs","sector":"Health","name":"RSK Bedah Rawamangun","kel":"RAWAMANGUN","kec":"PULO GADUNG"},"geometry":{"type":"Point","coordinates":[106.88454,-6.19661]}},{"id":"55","type":"Feature","properties":{"cat":"rs","sector":"Health","name":"RS EMC Pulomas","kel":"KAYU PUTIH","kec":"PULO GADUNG"},"geometry":{"type":"Point","coordinates":[106.88403,-6.18008]}},{"id":"56","type":"Feature","properties":{"cat":"rs","sector":"Health","name":"RS Islam Jakarta Timur","kel":"PONDOK KOPI","kec":"DUREN SAWIT"},"geometry":{"type":"Point","coordinates":[106.93923,-6.21986]}},{"id":"57","type":"Feature","properties":{"cat":"rs","sector":"Health","name":"RSU Kartika Pulo Mas","kel":"KAYU PUTIH","kec":"PULO GADUNG"},"geometry":{"type":"Point","coordinates":[106.88509,-6.17406]}},{"id":"58","type":"Feature","properties":{"cat":"rs","sector":"Health","name":"RS Harum","kel":"CIPINANG MELAYU","kec":"MAKASAR"},"geometry":{"type":"Point","coordinates":[106.90926,-6.24769]}},{"id":"59","type":"Feature","properties":{"cat":"rs","sector":"Health","name":"RS Harapan Jayakarta","kel":"JATINEGARA","kec":"CAKUNG"},"geometry":{"type":"Point","coordinates":[106.90613,-6.19492]}},{"id":"60","type":"Feature","properties":{"cat":"rs","sector":"Health","name":"RS Harapan Bunda","kel":"RAMBUTAN","kec":"CIRACAS"},"geometry":{"type":"Point","coordinates":[106.86743,-6.30303]}},{"id":"61","type":"Feature","properties":{"cat":"rs","sector":"Health","name":"RS Yadika Pondok Bambu","kel":"PONDOK BAMBU","kec":"DUREN SAWIT"},"geometry":{"type":"Point","coordinates":[106.89933,-6.23721]}},{"id":"62","type":"Feature","properties":{"cat":"rs","sector":"Health","name":"RS Dharma Nugraha","kel":"RAWAMANGUN","kec":"PULO GADUNG"},"geometry":{"type":"Point","coordinates":[106.88423,-6.196]}},{"id":"63","type":"Feature","properties":{"cat":"rs","sector":"Health","name":"RS Mediros","kel":"PULO GADUNG","kec":"PULO GADUNG"},"geometry":{"type":"Point","coordinates":[106.90382,-6.17963]}},{"id":"64","type":"Feature","properties":{"cat":"rs","sector":"Health","name":"RS Haji Jakarta","kel":"HALIM PERDANA KUSUMAH","kec":"MAKASAR"},"geometry":{"type":"Point","coordinates":[106.88719,-6.28996]}},{"id":"65","type":"Feature","properties":{"cat":"rs","sector":"Health","name":"RS Jiwa Islam Klender","kel":"MALAKA JAYA","kec":"DUREN SAWIT"},"geometry":{"type":"Point","coordinates":[106.93469,-6.22172]}},{"id":"66","type":"Feature","properties":{"cat":"rs","sector":"Health","name":"RSKD Duren Sawit","kel":"PONDOK BAMBU","kec":"DUREN SAWIT"},"geometry":{"type":"Point","coordinates":[106.90887,-6.23213]}},{"id":"67","type":"Feature","properties":{"cat":"rs","sector":"Health","name":"RSIA Resti Mulya","kel":"PENGGILINGAN","kec":"CAKUNG"},"geometry":{"type":"Point","coordinates":[106.94181,-6.20853]}},{"id":"68","type":"Feature","properties":{"cat":"rs","sector":"Health","name":"RS Gigi dan Mulut Angkatan Udara","kel":"HALIM PERDANA KUSUMAH","kec":"MAKASAR"},"geometry":{"type":"Point","coordinates":[106.89778,-6.2877]}},{"id":"69","type":"Feature","properties":{"cat":"rs","sector":"Health","name":"RS Jantung Bina Waluya","kel":"SUSUKAN","kec":"CIRACAS"},"geometry":{"type":"Point","coordinates":[106.87076,-6.30806]}},{"id":"70","type":"Feature","properties":{"cat":"rs","sector":"Health","name":"RS Jantung Jakarta","kel":"PAL MERIAM","kec":"MATRAMAN"},"geometry":{"type":"Point","coordinates":[106.85528,-6.20027]}},{"id":"71","type":"Feature","properties":{"cat":"rs","sector":"Health","name":"RSIA Sammarie Basra","kel":"PONDOK BAMBU","kec":"DUREN SAWIT"},"geometry":{"type":"Point","coordinates":[106.89728,-6.2293]}},{"id":"72","type":"Feature","properties":{"cat":"rs","sector":"Health","name":"RSU Adhyaksa","kel":"CEGER","kec":"CIPAYUNG"},"geometry":{"type":"Point","coordinates":[106.89269,-6.30786]}},{"id":"73","type":"Feature","properties":{"cat":"rs","sector":"Health","name":"RSU Columbia Asia-Pulomas","kel":"KAYU PUTIH","kec":"PULO GADUNG"},"geometry":{"type":"Point","coordinates":[106.89118,-6.18156]}},{"id":"74","type":"Feature","properties":{"cat":"rs","sector":"Health","name":"RSUD Kramat Jati","kel":"KAMPUNG TENGAH","kec":"KRAMAT JATI"},"geometry":{"type":"Point","coordinates":[106.86231,-6.28677]}},{"id":"75","type":"Feature","properties":{"cat":"rs","sector":"Health","name":"RSUD Ciracas","kel":"PEKAYON","kec":"PASAR REBO"},"geometry":{"type":"Point","coordinates":[106.87162,-6.34554]}},{"id":"76","type":"Feature","properties":{"cat":"rs","sector":"Health","name":"RSUP Nasional Dr. Cipto Mangunkusumo","kel":"PEGANGSAAN","kec":"MENTENG"},"geometry":{"type":"Point","coordinates":[106.84515,-6.19666]}},{"id":"77","type":"Feature","properties":{"cat":"rs","sector":"Health","name":"RSPAD Gatot Soebroto","kel":"SENEN","kec":"SENEN"},"geometry":{"type":"Point","coordinates":[106.83871,-6.17617]}},{"id":"78","type":"Feature","properties":{"cat":"rs","sector":"Health","name":"RS AL Dr Mintoharjo","kel":"BENDUNGAN HILIR","kec":"TANAH ABANG"},"geometry":{"type":"Point","coordinates":[106.81096,-6.21321]}},{"id":"79","type":"Feature","properties":{"cat":"rs","sector":"Health","name":"RS Husada","kel":"MANGGA DUA SELATAN","kec":"SAWAH BESAR"},"geometry":{"type":"Point","coordinates":[106.82957,-6.14714]}},{"id":"80","type":"Feature","properties":{"cat":"rs","sector":"Health","name":"RS Sint Carolus","kel":"PASEBAN","kec":"SENEN"},"geometry":{"type":"Point","coordinates":[106.85445,-6.19709]}},{"id":"81","type":"Feature","properties":{"cat":"rs","sector":"Health","name":"RS Primaya PGI Cikini","kel":"CIKINI","kec":"MENTENG"},"geometry":{"type":"Point","coordinates":[106.84198,-6.19148]}},{"id":"82","type":"Feature","properties":{"cat":"rs","sector":"Health","name":"RS Islam Jakarta Cempaka Putih","kel":"CEMPAKA PUTIH TIMUR","kec":"CEMPAKA PUTIH"},"geometry":{"type":"Point","coordinates":[106.87071,-6.17031]}},{"id":"83","type":"Feature","properties":{"cat":"rs","sector":"Health","name":"RS Tk II M.Ridwan Meuraksa","kel":"PINANG RANTI","kec":"MAKASAR"},"geometry":{"type":"Point","coordinates":[106.8827,-6.29406]}},{"id":"84","type":"Feature","properties":{"cat":"rs","sector":"Health","name":"RS Budi Kemuliaan","kel":"GAMBIR","kec":"GAMBIR"},"geometry":{"type":"Point","coordinates":[106.8181,-6.18003]}},{"id":"85","type":"Feature","properties":{"cat":"rs","sector":"Health","name":"RS YPK Mandiri","kel":"GONDANGDIA","kec":"MENTENG"},"geometry":{"type":"Point","coordinates":[106.82664,-6.18959]}},{"id":"86","type":"Feature","properties":{"cat":"rs","sector":"Health","name":"RSIA Bunda","kel":"GONDANGDIA","kec":"MENTENG"},"geometry":{"type":"Point","coordinates":[106.83564,-6.19586]}},{"id":"87","type":"Feature","properties":{"cat":"rs","sector":"Health","name":"RS Primaya Evasari","kel":"RAWASARI","kec":"CEMPAKA PUTIH"},"geometry":{"type":"Point","coordinates":[106.86,-6.19373]}},{"id":"88","type":"Feature","properties":{"cat":"rs","sector":"Health","name":"RS Pertamina Jaya","kel":"CEMPAKA PUTIH TIMUR","kec":"CEMPAKA PUTIH"},"geometry":{"type":"Point","coordinates":[106.87609,-6.17329]}},{"id":"89","type":"Feature","properties":{"cat":"rs","sector":"Health","name":"RS Dr. Abdul Radjak","kel":"PASEBAN","kec":"SENEN"},"geometry":{"type":"Point","coordinates":[106.852,-6.19355]}},{"id":"90","type":"Feature","properties":{"cat":"rs","sector":"Health","name":"RUMAH SAKIT UMUM DAERAH TARAKAN","kel":"CIDENG","kec":"GAMBIR"},"geometry":{"type":"Point","coordinates":[106.80819,-6.1718]}},{"id":"91","type":"Feature","properties":{"cat":"rs","sector":"Health","name":"RSK THT-Bedah KL Proklamasi","kel":"PEGANGSAAN","kec":"MENTENG"},"geometry":{"type":"Point","coordinates":[106.84498,-6.20218]}},{"id":"92","type":"Feature","properties":{"cat":"rs","sector":"Health","name":"RS Abdi Waluyo","kel":"GONDANGDIA","kec":"MENTENG"},"geometry":{"type":"Point","coordinates":[106.82708,-6.18983]}},{"id":"93","type":"Feature","properties":{"cat":"rs","sector":"Health","name":"RS Kramat 128","kel":"KWITANG","kec":"SENEN"},"geometry":{"type":"Point","coordinates":[106.84189,-6.18548]}},{"id":"94","type":"Feature","properties":{"cat":"rs","sector":"Health","name":"RSK THT Prof Nizar","kel":"PETOJO SELATAN","kec":"GAMBIR"},"geometry":{"type":"Point","coordinates":[106.81317,-6.17126]}},{"id":"95","type":"Feature","properties":{"cat":"rs","sector":"Health","name":"RS Mata Jakarta Eye Center","kel":"MENTENG","kec":"MENTENG"},"geometry":{"type":"Point","coordinates":[106.83464,-6.19859]}},{"id":"96","type":"Feature","properties":{"cat":"rs","sector":"Health","name":"RSK Bedah Bina Estetika","kel":"MENTENG","kec":"MENTENG"},"geometry":{"type":"Point","coordinates":[106.83529,-6.19932]}},{"id":"97","type":"Feature","properties":{"cat":"rs","sector":"Health","name":"RS Menteng Mitra Afia","kel":"CIKINI","kec":"MENTENG"},"geometry":{"type":"Point","coordinates":[106.83619,-6.18702]}},{"id":"98","type":"Feature","properties":{"cat":"rs","sector":"Health","name":"RS Mitra Kemayoran","kel":"KEBON KOSONG","kec":"KEMAYORAN"},"geometry":{"type":"Point","coordinates":[106.85631,-6.15196]}},{"id":"99","type":"Feature","properties":{"cat":"rs","sector":"Health","name":"RSGM FKG Univ.Indonesia","kel":"KENARI","kec":"SENEN"},"geometry":{"type":"Point","coordinates":[106.84844,-6.1938]}},{"id":"100","type":"Feature","properties":{"cat":"rs","sector":"Health","name":"RSIA Tambak","kel":"MENTENG","kec":"MENTENG"},"geometry":{"type":"Point","coordinates":[106.84642,-6.20626]}},{"id":"101","type":"Feature","properties":{"cat":"rs","sector":"Health","name":"RSU Bunda Jakarta","kel":"GONDANGDIA","kec":"MENTENG"},"geometry":{"type":"Point","coordinates":[106.835,-6.19603]}},{"id":"102","type":"Feature","properties":{"cat":"rs","sector":"Health","name":"RS Gigi dan Mulut Ladokgi TNI AL R.E. Martadinata","kel":"GELORA","kec":"TANAH ABANG"},"geometry":{"type":"Point","coordinates":[106.80626,-6.21163]}},{"id":"103","type":"Feature","properties":{"cat":"rs","sector":"Health","name":"RUMAH SAKIT UMUM DAERAH SAWAH BESAR","kel":"KARANG ANYAR","kec":"SAWAH BESAR"},"geometry":{"type":"Point","coordinates":[106.83003,-6.14902]}},{"id":"104","type":"Feature","properties":{"cat":"rs","sector":"Health","name":"RSUD Kemayoran","kel":"SERDANG","kec":"KEMAYORAN"},"geometry":{"type":"Point","coordinates":[106.86166,-6.15689]}},{"id":"105","type":"Feature","properties":{"cat":"rs","sector":"Health","name":"RSUD Cempaka Putih","kel":"CEMPAKA PUTIH TIMUR","kec":"CEMPAKA PUTIH"},"geometry":{"type":"Point","coordinates":[106.87224,-6.18494]}},{"id":"106","type":"Feature","properties":{"cat":"rs","sector":"Health","name":"RS Sumber Waras","kel":"TOMANG","kec":"GROGOL PETAMBURAN"},"geometry":{"type":"Point","coordinates":[106.79769,-6.16738]}},{"id":"107","type":"Feature","properties":{"cat":"rs","sector":"Health","name":"RS Pelni Petamburan","kel":"SLIPI","kec":"PALMERAH"},"geometry":{"type":"Point","coordinates":[106.80322,-6.19343]}},{"id":"108","type":"Feature","properties":{"cat":"rs","sector":"Health","name":"RS Bhakti Mulia","kel":"PALMERAH","kec":"PALMERAH"},"geometry":{"type":"Point","coordinates":[106.79836,-6.1996]}},{"id":"109","type":"Feature","properties":{"cat":"rs","sector":"Health","name":"RS Jiwa Dr. Soeharto Heerdjan Jakarta","kel":"JELAMBAR","kec":"GROGOL PETAMBURAN"},"geometry":{"type":"Point","coordinates":[106.78592,-6.16279]}},{"id":"110","type":"Feature","properties":{"cat":"rs","sector":"Health","name":"RS Grha Kedoya","kel":"KEDOYA UTARA","kec":"KEBON JERUK"},"geometry":{"type":"Point","coordinates":[106.7634,-6.1682]}},{"id":"111","type":"Feature","properties":{"cat":"rs","sector":"Health","name":"RS Kanker Dharmais","kel":"KEMANGGISAN","kec":"PALMERAH"},"geometry":{"type":"Point","coordinates":[106.79577,-6.18673]}},{"id":"112","type":"Feature","properties":{"cat":"rs","sector":"Health","name":"RSUD Cengkareng","kel":"CENGKARENG TIMUR","kec":"CENGKARENG"},"geometry":{"type":"Point","coordinates":[106.73494,-6.1437]}},{"id":"113","type":"Feature","properties":{"cat":"rs","sector":"Health","name":"RSAB Harapan Kita","kel":"KEMANGGISAN","kec":"PALMERAH"},"geometry":{"type":"Point","coordinates":[106.79681,-6.18474]}},{"id":"114","type":"Feature","properties":{"cat":"rs","sector":"Health","name":"RS Jantung dan Pembuluh Darah Harapan Kita","kel":"KEMANGGISAN","kec":"PALMERAH"},"geometry":{"type":"Point","coordinates":[106.79655,-6.18546]}},{"id":"115","type":"Feature","properties":{"cat":"rs","sector":"Health","name":"RS Siloam Kebon Jeruk","kel":"KEBON JERUK","kec":"KEBON JERUK"},"geometry":{"type":"Point","coordinates":[106.7613,-6.19043]}},{"id":"116","type":"Feature","properties":{"cat":"rs","sector":"Health","name":"RS Patria IKKT","kel":"PALMERAH","kec":"PALMERAH"},"geometry":{"type":"Point","coordinates":[106.79267,-6.19696]}},{"id":"117","type":"Feature","properties":{"cat":"rs","sector":"Health","name":"RS Medika Permata Hijau","kel":"SUKABUMI SELATAN","kec":"KEBON JERUK"},"geometry":{"type":"Point","coordinates":[106.77809,-6.21799]}},{"id":"118","type":"Feature","properties":{"cat":"rs","sector":"Health","name":"RS Hermina Daan Mogot","kel":"KALIDERES","kec":"KALI DERES"},"geometry":{"type":"Point","coordinates":[106.71026,-6.15297]}},{"id":"119","type":"Feature","properties":{"cat":"rs","sector":"Health","name":"RSGM-P FKG Universitas Trisakti","kel":"TOMANG","kec":"GROGOL PETAMBURAN"},"geometry":{"type":"Point","coordinates":[106.79684,-6.16702]}},{"id":"120","type":"Feature","properties":{"cat":"rs","sector":"Health","name":"RS Cinta Kasih Tzu Chi","kel":"CENGKARENG TIMUR","kec":"CENGKARENG"},"geometry":{"type":"Point","coordinates":[106.73709,-6.13196]}},{"id":"121","type":"Feature","properties":{"cat":"rs","sector":"Health","name":"RS Cendana","kel":"KEDOYA SELATAN","kec":"KEBON JERUK"},"geometry":{"type":"Point","coordinates":[106.76137,-6.18753]}},{"id":"122","type":"Feature","properties":{"cat":"rs","sector":"Health","name":"RS Royal Taruma","kel":"TANJUNG DUREN UTARA","kec":"GROGOL PETAMBURAN"},"geometry":{"type":"Point","coordinates":[106.78303,-6.16681]}},{"id":"123","type":"Feature","properties":{"cat":"rs","sector":"Health","name":"RS Bina Sehat Mandiri","kel":"DURI KEPA","kec":"KEBON JERUK"},"geometry":{"type":"Point","coordinates":[106.7693,-6.18565]}},{"id":"124","type":"Feature","properties":{"cat":"rs","sector":"Health","name":"RS Puri Indah","kel":"KEMBANGAN SELATAN","kec":"KEMBANGAN"},"geometry":{"type":"Point","coordinates":[106.74072,-6.18586]}},{"id":"125","type":"Feature","properties":{"cat":"rs","sector":"Health","name":"RSIA St. Yusuf","kel":"KAPUK MUARA","kec":"PENJARINGAN"},"geometry":{"type":"Point","coordinates":[106.7649,-6.1259]}},{"id":"126","type":"Feature","properties":{"cat":"rs","sector":"Health","name":"RS Mata Jakarta Eye Center Kedoya","kel":"KEDOYA SELATAN","kec":"KEBON JERUK"},"geometry":{"type":"Point","coordinates":[106.75926,-6.1896]}},{"id":"127","type":"Feature","properties":{"cat":"rs","sector":"Health","name":"RSIA Ibnu Sina","kel":"GROGOL","kec":"GROGOL PETAMBURAN"},"geometry":{"type":"Point","coordinates":[106.7939,-6.16039]}},{"id":"128","type":"Feature","properties":{"cat":"rs","sector":"Health","name":"RSUD Kembangan","kel":"MERUYA UTARA","kec":"KEMBANGAN"},"geometry":{"type":"Point","coordinates":[106.73625,-6.19468]}},{"id":"129","type":"Feature","properties":{"cat":"rs","sector":"Health","name":"RSUD Kalideres","kel":"PEGADUNGAN","kec":"KALI DERES"},"geometry":{"type":"Point","coordinates":[106.70402,-6.12675]}},{"id":"130","type":"Feature","properties":{"cat":"rs","sector":"Health","name":"RS Mitra Keluarga Kalideres","kel":"KALIDERES","kec":"KALI DERES"},"geometry":{"type":"Point","coordinates":[106.7023,-6.14848]}},{"id":"131","type":"Feature","properties":{"cat":"rs","sector":"Health","name":"RSUD Koja","kel":"KOJA","kec":"KOJA"},"geometry":{"type":"Point","coordinates":[106.90007,-6.10872]}},{"id":"132","type":"Feature","properties":{"cat":"rs","sector":"Health","name":"RS Akademik Atma Jaya","kel":"PENJARINGAN","kec":"PENJARINGAN"},"geometry":{"type":"Point","coordinates":[106.79275,-6.12655]}},{"id":"133","type":"Feature","properties":{"cat":"rs","sector":"Health","name":"RS Pelabuhan Jakarta","kel":"TUGU UTARA","kec":"KOJA"},"geometry":{"type":"Point","coordinates":[106.918,-6.125]}},{"id":"134","type":"Feature","properties":{"cat":"rs","sector":"Health","name":"RSPI Prof. Dr. Sulianti Saroso","kel":"PAPANGGO","kec":"TANJUNG PRIOK"},"geometry":{"type":"Point","coordinates":[106.86226,-6.12992]}},{"id":"135","type":"Feature","properties":{"cat":"rs","sector":"Health","name":"RS Mulyasari","kel":"RAWA BADAK SELATAN","kec":"KOJA"},"geometry":{"type":"Point","coordinates":[106.89778,-6.12917]}},{"id":"136","type":"Feature","properties":{"cat":"rs","sector":"Health","name":"RS Sukmul Sisma Medika","kel":"TANJUNG PRIOK","kec":"TANJUNG PRIOK"},"geometry":{"type":"Point","coordinates":[106.882,-6.11233]}},{"id":"137","type":"Feature","properties":{"cat":"rs","sector":"Health","name":"RSU Hermina Podomoro","kel":"SUNTER AGUNG","kec":"TANJUNG PRIOK"},"geometry":{"type":"Point","coordinates":[106.86149,-6.14561]}},{"id":"138","type":"Feature","properties":{"cat":"rs","sector":"Health","name":"RS Satya Negara","kel":"SUNTER AGUNG","kec":"TANJUNG PRIOK"},"geometry":{"type":"Point","coordinates":[106.85859,-6.13759]}},{"id":"139","type":"Feature","properties":{"cat":"rs","sector":"Health","name":"RS Islam Jakarta Utara","kel":"SUKAPURA","kec":"CILINCING"},"geometry":{"type":"Point","coordinates":[106.92096,-6.13979]}},{"id":"140","type":"Feature","properties":{"cat":"rs","sector":"Health","name":"RS Royal Progress","kel":"SUNTER AGUNG","kec":"TANJUNG PRIOK"},"geometry":{"type":"Point","coordinates":[106.86548,-6.13946]}},{"id":"141","type":"Feature","properties":{"cat":"rs","sector":"Health","name":"RS Pluit","kel":"PENJARINGAN","kec":"PENJARINGAN"},"geometry":{"type":"Point","coordinates":[106.79969,-6.12579]}},{"id":"142","type":"Feature","properties":{"cat":"rs","sector":"Health","name":"RS Pantai Indah Kapuk","kel":"TEGAL ALUR","kec":"KALI DERES"},"geometry":{"type":"Point","coordinates":[106.71793,-6.11169]}},{"id":"143","type":"Feature","properties":{"cat":"rs","sector":"Health","name":"RSIA Family","kel":"PEJAGALAN","kec":"PENJARINGAN"},"geometry":{"type":"Point","coordinates":[106.79057,-6.13379]}},{"id":"144","type":"Feature","properties":{"cat":"rs","sector":"Health","name":"RSIA Puri Medika","kel":"SUNGAI BAMBU","kec":"TANJUNG PRIOK"},"geometry":{"type":"Point","coordinates":[106.88541,-6.12994]}},{"id":"145","type":"Feature","properties":{"cat":"rs","sector":"Health","name":"RS Mitra Keluarga Kelapa Gading","kel":"KELAPA GADING BARAT","kec":"KELAPA GADING"},"geometry":{"type":"Point","coordinates":[106.8971,-6.15193]}},{"id":"146","type":"Feature","properties":{"cat":"rs","sector":"Health","name":"RS Port Medical Center","kel":"TANJUNG PRIOK","kec":"TANJUNG PRIOK"},"geometry":{"type":"Point","coordinates":[106.8893,-6.11021]}},{"id":"147","type":"Feature","properties":{"cat":"rs","sector":"Health","name":"RS Gading Pluit","kel":"PEGANGSAAN DUA","kec":"KELAPA GADING"},"geometry":{"type":"Point","coordinates":[106.91573,-6.16576]}},{"id":"148","type":"Feature","properties":{"cat":"rs","sector":"Health","name":"RSIA Grand Family","kel":"KAMAL MUARA","kec":"PENJARINGAN"},"geometry":{"type":"Point","coordinates":[106.73638,-6.12165]}},{"id":"149","type":"Feature","properties":{"cat":"rs","sector":"Health","name":"RSU Pekerja","kel":"SUKAPURA","kec":"CILINCING"},"geometry":{"type":"Point","coordinates":[106.92112,-6.14537]}},{"id":"150","type":"Feature","properties":{"cat":"rs","sector":"Health","name":"RS Duta Indah","kel":"PEJAGALAN","kec":"PENJARINGAN"},"geometry":{"type":"Point","coordinates":[106.78162,-6.13805]}},{"id":"151","type":"Feature","properties":{"cat":"rs","sector":"Health","name":"RSUD Tugu Koja","kel":"TUGU UTARA","kec":"KOJA"},"geometry":{"type":"Point","coordinates":[106.90704,-6.12725]}},{"id":"152","type":"Feature","properties":{"cat":"rs","sector":"Health","name":"RSUD Pademangan","kel":"PADEMANGAN BARAT","kec":"PADEMANGAN"},"geometry":{"type":"Point","coordinates":[106.84026,-6.13281]}},{"id":"153","type":"Feature","properties":{"cat":"rs","sector":"Health","name":"RSUD Cilincing","kel":"SEMPER TIMUR","kec":"CILINCING"},"geometry":{"type":"Point","coordinates":[106.92622,-6.11306]}},{"id":"154","type":"Feature","properties":{"cat":"rs","sector":"Health","name":"RSUD Tanah Abang","kel":"KEBON KACANG","kec":"TANAH ABANG"},"geometry":{"type":"Point","coordinates":[106.81485,-6.19088]}},{"id":"155","type":"Feature","properties":{"cat":"rs","sector":"Health","name":"RSUD Matraman","kel":"UTAN KAYU SELATAN","kec":"MATRAMAN"},"geometry":{"type":"Point","coordinates":[106.86599,-6.20626]}},{"id":"156","type":"Feature","properties":{"cat":"rs","sector":"Health","name":"Rumah Sakit Umum Daerah Tamansari","kel":"MANGGA BESAR","kec":"TAMAN SARI"},"geometry":{"type":"Point","coordinates":[106.81907,-6.14399]}},{"id":"157","type":"Feature","properties":{"cat":"rs","sector":"Health","name":"RSUD Tanjung Priok","kel":"KEBON BAWANG","kec":"TANJUNG PRIOK"},"geometry":{"type":"Point","coordinates":[106.88863,-6.11592]}},{"id":"158","type":"Feature","properties":{"cat":"rs","sector":"Health","name":"RSUD Pasar Minggu","kel":"RAGUNAN","kec":"PASAR MINGGU"},"geometry":{"type":"Point","coordinates":[106.82017,-6.29407]}},{"id":"159","type":"Feature","properties":{"cat":"rs","sector":"Health","name":"RUMAH SAKIT UMUM DAERAH JATI PADANG","kel":"PASAR MINGGU","kec":"PASAR MINGGU"},"geometry":{"type":"Point","coordinates":[106.84231,-6.28555]}},{"id":"160","type":"Feature","properties":{"cat":"rs","sector":"Health","name":"RSUD Kebayoran Baru","kel":"CIPETE UTARA","kec":"KEBAYORAN BARU"},"geometry":{"type":"Point","coordinates":[106.79858,-6.26547]}},{"id":"161","type":"Feature","properties":{"cat":"rs","sector":"Health","name":"RS Olahraga Nasional","kel":"CIBUBUR","kec":"CIRACAS"},"geometry":{"type":"Point","coordinates":[106.8909,-6.36771]}},{"id":"162","type":"Feature","properties":{"cat":"rs","sector":"Health","name":"RS Anggrek Mas","kel":"KELAPA DUA","kec":"KEBON JERUK"},"geometry":{"type":"Point","coordinates":[106.77249,-6.20319]}},{"id":"163","type":"Feature","properties":{"cat":"rs","sector":"Health","name":"RS Ali Sibroh Malisi","kel":"CIPEDAK","kec":"JAGAKARSA"},"geometry":{"type":"Point","coordinates":[106.81391,-6.3447]}},{"id":"164","type":"Feature","properties":{"cat":"rs","sector":"Health","name":"RSIA Alvernia Agusta","kel":"JATI","kec":"PULO GADUNG"},"geometry":{"type":"Point","coordinates":[106.8916,-6.19375]}},{"id":"165","type":"Feature","properties":{"cat":"rs","sector":"Health","name":"RSUD Kebayoran Lama","kel":"KEBAYORAN LAMA SELATAN","kec":"KEBAYORAN LAMA"},"geometry":{"type":"Point","coordinates":[106.78547,-6.24885]}},{"id":"166","type":"Feature","properties":{"cat":"rs","sector":"Health","name":"RSUD Cipayung","kel":"BAMBU APUS","kec":"CIPAYUNG"},"geometry":{"type":"Point","coordinates":[106.9054,-6.30737]}},{"id":"167","type":"Feature","properties":{"cat":"rs","sector":"Health","name":"RS Petukangan","kel":"PETUKANGAN SELATAN","kec":"PESANGGRAHAN"},"geometry":{"type":"Point","coordinates":[106.75172,-6.23683]}},{"id":"168","type":"Feature","properties":{"cat":"rs","sector":"Health","name":"RS Ciputra","kel":null,"kec":null},"geometry":{"type":"Point","coordinates":[106.56593,-6.20151]}},{"id":"169","type":"Feature","properties":{"cat":"rs","sector":"Health","name":"RS Gigi dan Mulut Yarsi","kel":"CEMPAKA BARU","kec":"KEMAYORAN"},"geometry":{"type":"Point","coordinates":[106.86665,-6.1699]}},{"id":"170","type":"Feature","properties":{"cat":"rs","sector":"Health","name":"RSK Mata JEC Primasana","kel":"KEBON BAWANG","kec":"TANJUNG PRIOK"},"geometry":{"type":"Point","coordinates":[106.89004,-6.1144]}},{"id":"171","type":"Feature","properties":{"cat":"rs","sector":"Health","name":"RS THT dan Orthopedi SS Medika","kel":"PEGANGSAAN","kec":"MENTENG"},"geometry":{"type":"Point","coordinates":[106.84846,-6.19905]}},{"id":"172","type":"Feature","properties":{"cat":"rs","sector":"Health","name":"RS Hermina Kemayoran","kel":"GUNUNG SAHARI SELATAN","kec":"KEMAYORAN"},"geometry":{"type":"Point","coordinates":[106.84367,-6.15458]}},{"id":"173","type":"Feature","properties":{"cat":"rs","sector":"Health","name":"RSU Yarsi","kel":"CEMPAKA BARU","kec":"KEMAYORAN"},"geometry":{"type":"Point","coordinates":[106.86726,-6.16984]}},{"id":"174","type":"Feature","properties":{"cat":"rs","sector":"Health","name":"RSK Mata Nusantara","kel":"LEBAK BULUS","kec":"CILANDAK"},"geometry":{"type":"Point","coordinates":[106.78257,-6.29141]}},{"id":"175","type":"Feature","properties":{"cat":"rs","sector":"Health","name":"RSU Siloam Asri","kel":"DUREN TIGA","kec":"PANCORAN"},"geometry":{"type":"Point","coordinates":[106.83233,-6.25438]}},{"id":"176","type":"Feature","properties":{"cat":"rs","sector":"Health","name":"RSIA Aries","kel":"DURI SELATAN","kec":"TAMBORA"},"geometry":{"type":"Point","coordinates":[106.80761,-6.1576]}},{"id":"177","type":"Feature","properties":{"cat":"rs","sector":"Health","name":"RSK Bedah Halimun","kel":"GUNTUR","kec":"SETIA BUDI"},"geometry":{"type":"Point","coordinates":[106.83391,-6.20631]}},{"id":"178","type":"Feature","properties":{"cat":"rs","sector":"Health","name":"RSU Siloam Mampang","kel":"DUREN TIGA","kec":"PANCORAN"},"geometry":{"type":"Point","coordinates":[106.82686,-6.25328]}},{"id":"179","type":"Feature","properties":{"cat":"rs","sector":"Health","name":"RS Mayapada Kuningan","kel":"GUNUNG","kec":"KEBAYORAN BARU"},"geometry":{"type":"Point","coordinates":[106.79416,-6.23846]}},{"id":"180","type":"Feature","properties":{"cat":"rs","sector":"Health","name":"RS Brawijaya Saharjo","kel":"MENTENG DALAM","kec":"TEBET"},"geometry":{"type":"Point","coordinates":[106.84534,-6.22455]}},{"id":"181","type":"Feature","properties":{"cat":"rs","sector":"Health","name":"RS Umum Tzu Chi Hospital","kel":"KAMAL MUARA","kec":"PENJARINGAN"},"geometry":{"type":"Point","coordinates":[106.73931,-6.10561]}},{"id":"182","type":"Feature","properties":{"cat":"pusk","sector":"Health","name":"Puskesmas Kecamatan Jagakarsa","kel":"JAGAKARSA","kec":"JAGAKARSA"},"geometry":{"type":"Point","coordinates":[106.81757,-6.33663]}},{"id":"183","type":"Feature","properties":{"cat":"pusk","sector":"Health","name":"Puskesmas Kelurahan Jagakarsa I","kel":"JAGAKARSA","kec":"JAGAKARSA"},"geometry":{"type":"Point","coordinates":[106.81788,-6.32899]}},{"id":"184","type":"Feature","properties":{"cat":"pusk","sector":"Health","name":"Puskesmas Kelurahan Jagakarsa II","kel":"JAGAKARSA","kec":"JAGAKARSA"},"geometry":{"type":"Point","coordinates":[106.82252,-6.31935]}},{"id":"185","type":"Feature","properties":{"cat":"pusk","sector":"Health","name":"Puskesmas Kelurahan Lenteng Agung I","kel":null,"kec":null},"geometry":{"type":"Point","coordinates":[106.83549,-6.32515]}},{"id":"186","type":"Feature","properties":{"cat":"pusk","sector":"Health","name":"Puskesmas Kelurahan Lenteng Agung II","kel":null,"kec":null},"geometry":{"type":"Point","coordinates":[106.83556,-6.34065]}},{"id":"187","type":"Feature","properties":{"cat":"pusk","sector":"Health","name":"Puskesmas Kelurahan Srengseng Sawah","kel":"SRENGSENG SAWAH","kec":"JAGAKARSA"},"geometry":{"type":"Point","coordinates":[106.81412,-6.35147]}},{"id":"188","type":"Feature","properties":{"cat":"pusk","sector":"Health","name":"Puskesmas Kecamatan Pasar Minggu","kel":"KEBAGUSAN","kec":"PASAR MINGGU"},"geometry":{"type":"Point","coordinates":[106.82553,-6.32083]}},{"id":"189","type":"Feature","properties":{"cat":"pusk","sector":"Health","name":"Puskesmas Kelurahan Cilandak Timur","kel":"CILANDAK TIMUR","kec":"PASAR MINGGU"},"geometry":{"type":"Point","coordinates":[106.81511,-6.27921]}},{"id":"190","type":"Feature","properties":{"cat":"pusk","sector":"Health","name":"Puskesmas Kelurahan Pejaten Timur","kel":"PEJATEN TIMUR","kec":"PASAR MINGGU"},"geometry":{"type":"Point","coordinates":[106.84513,-6.29436]}},{"id":"191","type":"Feature","properties":{"cat":"pusk","sector":"Health","name":"Puskesmas Kelurahan Pejaten Barat I","kel":"PEJATEN BARAT","kec":"PASAR MINGGU"},"geometry":{"type":"Point","coordinates":[106.83048,-6.27893]}},{"id":"192","type":"Feature","properties":{"cat":"pusk","sector":"Health","name":"Puskesmas Kelurahan Pejaten Barat II","kel":"PEJATEN BARAT","kec":"PASAR MINGGU"},"geometry":{"type":"Point","coordinates":[106.84015,-6.26837]}},{"id":"193","type":"Feature","properties":{"cat":"pusk","sector":"Health","name":"Puskesmas Kelurahan Pejaten Barat III","kel":"PEJATEN BARAT","kec":"PASAR MINGGU"},"geometry":{"type":"Point","coordinates":[106.83758,-6.26978]}},{"id":"194","type":"Feature","properties":{"cat":"pusk","sector":"Health","name":"Puskesmas Kelurahan Pasar Minggu I","kel":"PASAR MINGGU","kec":"PASAR MINGGU"},"geometry":{"type":"Point","coordinates":[106.83888,-6.29807]}},{"id":"195","type":"Feature","properties":{"cat":"pusk","sector":"Health","name":"Puskesmas Kelurahan Kebagusan","kel":"KEBAGUSAN","kec":"PASAR MINGGU"},"geometry":{"type":"Point","coordinates":[106.82707,-6.2978]}},{"id":"196","type":"Feature","properties":{"cat":"pusk","sector":"Health","name":"Puskesmas Kelurahan Ragunan","kel":"RAGUNAN","kec":"PASAR MINGGU"},"geometry":{"type":"Point","coordinates":[106.82059,-6.30134]}},{"id":"197","type":"Feature","properties":{"cat":"pusk","sector":"Health","name":"Puskesmas Kecamatan Cilandak","kel":"CILANDAK BARAT","kec":"CILANDAK"},"geometry":{"type":"Point","coordinates":[106.7932,-6.28608]}},{"id":"198","type":"Feature","properties":{"cat":"pusk","sector":"Health","name":"Puskesmas Kelurahan Gandaria Selatan","kel":"GANDARIA SELATAN","kec":"CILANDAK"},"geometry":{"type":"Point","coordinates":[106.79321,-6.27016]}},{"id":"199","type":"Feature","properties":{"cat":"pusk","sector":"Health","name":"Puskesmas Kelurahan Cipete Selatan","kel":"CIPETE SELATAN","kec":"CILANDAK"},"geometry":{"type":"Point","coordinates":[106.80762,-6.27616]}},{"id":"200","type":"Feature","properties":{"cat":"pusk","sector":"Health","name":"Puskesmas Kelurahan Cilandak Barat","kel":"CILANDAK BARAT","kec":"CILANDAK"},"geometry":{"type":"Point","coordinates":[106.80514,-6.30165]}},{"id":"201","type":"Feature","properties":{"cat":"pusk","sector":"Health","name":"Puskesmas Kelurahan Lebak Bulus","kel":"LEBAK BULUS","kec":"CILANDAK"},"geometry":{"type":"Point","coordinates":[106.78419,-6.30899]}},{"id":"202","type":"Feature","properties":{"cat":"pusk","sector":"Health","name":"Puskesmas Kelurahan Pondok Labu","kel":"PONDOK LABU","kec":"CILANDAK"},"geometry":{"type":"Point","coordinates":[106.7926,-6.30267]}},{"id":"203","type":"Feature","properties":{"cat":"pusk","sector":"Health","name":"Puskesmas Kecamatan Pesanggrahan","kel":"PETUKANGAN UTARA","kec":"PESANGGRAHAN"},"geometry":{"type":"Point","coordinates":[106.75941,-6.22386]}},{"id":"204","type":"Feature","properties":{"cat":"pusk","sector":"Health","name":"Puskesmas Kelurahan Petukangan Utara","kel":"PETUKANGAN UTARA","kec":"PESANGGRAHAN"},"geometry":{"type":"Point","coordinates":[106.75299,-6.22665]}},{"id":"205","type":"Feature","properties":{"cat":"pusk","sector":"Health","name":"Puskesmas Kelurahan Petukangan Selatan","kel":"PETUKANGAN SELATAN","kec":"PESANGGRAHAN"},"geometry":{"type":"Point","coordinates":[106.75418,-6.24105]}},{"id":"206","type":"Feature","properties":{"cat":"pusk","sector":"Health","name":"Puskesmas Kelurahan Ulujami","kel":"ULUJAMI","kec":"PESANGGRAHAN"},"geometry":{"type":"Point","coordinates":[106.76214,-6.24523]}},{"id":"207","type":"Feature","properties":{"cat":"pusk","sector":"Health","name":"Puskesmas Kelurahan Bintaro","kel":"BINTARO","kec":"PESANGGRAHAN"},"geometry":{"type":"Point","coordinates":[106.76439,-6.27302]}},{"id":"208","type":"Feature","properties":{"cat":"pusk","sector":"Health","name":"Puskesmas Kelurahan Pesanggrahan","kel":"PESANGGRAHAN","kec":"PESANGGRAHAN"},"geometry":{"type":"Point","coordinates":[106.75615,-6.25219]}},{"id":"209","type":"Feature","properties":{"cat":"pusk","sector":"Health","name":"Puskesmas Kecamatan Kebayoran Lama","kel":"KEBAYORAN LAMA SELATAN","kec":"KEBAYORAN LAMA"},"geometry":{"type":"Point","coordinates":[106.77842,-6.24994]}},{"id":"210","type":"Feature","properties":{"cat":"pusk","sector":"Health","name":"Puskesmas Kelurahan Grogol Utara I","kel":"GROGOL","kec":"GROGOL PETAMBURAN"},"geometry":{"type":"Point","coordinates":[106.79536,-6.16001]}},{"id":"211","type":"Feature","properties":{"cat":"pusk","sector":"Health","name":"Puskesmas Kelurahan Grogol Utara II","kel":"PALMERAH","kec":"PALMERAH"},"geometry":{"type":"Point","coordinates":[106.78891,-6.20786]}},{"id":"212","type":"Feature","properties":{"cat":"pusk","sector":"Health","name":"Puskesmas Kelurahan Grogol Selatan","kel":"GROGOL SELATAN","kec":"KEBAYORAN LAMA"},"geometry":{"type":"Point","coordinates":[106.78081,-6.23054]}},{"id":"213","type":"Feature","properties":{"cat":"pusk","sector":"Health","name":"Puskesmas Kelurahan Cipulir I","kel":"CIPULIR","kec":"KEBAYORAN LAMA"},"geometry":{"type":"Point","coordinates":[106.7747,-6.23393]}},{"id":"214","type":"Feature","properties":{"cat":"pusk","sector":"Health","name":"Puskesmas Kelurahan Cipulir II","kel":"CIPULIR","kec":"KEBAYORAN LAMA"},"geometry":{"type":"Point","coordinates":[106.77998,-6.23672]}},{"id":"215","type":"Feature","properties":{"cat":"pusk","sector":"Health","name":"Puskesmas Kelurahan Kebayoran Lama Utara","kel":"KEBAYORAN LAMA UTARA","kec":"KEBAYORAN LAMA"},"geometry":{"type":"Point","coordinates":[106.77101,-6.24929]}},{"id":"216","type":"Feature","properties":{"cat":"pusk","sector":"Health","name":"Puskesmas Kelurahan Pondok Pinang","kel":"KEBAYORAN LAMA UTARA","kec":"KEBAYORAN LAMA"},"geometry":{"type":"Point","coordinates":[106.77475,-6.25114]}},{"id":"217","type":"Feature","properties":{"cat":"pusk","sector":"Health","name":"Puskesmas Kecamatan Kebayoran Baru","kel":"MELAWAI","kec":"KEBAYORAN BARU"},"geometry":{"type":"Point","coordinates":[106.80585,-6.24752]}},{"id":"218","type":"Feature","properties":{"cat":"pusk","sector":"Health","name":"Puskesmas Kelurahan Rawa Barat","kel":"SELONG","kec":"KEBAYORAN BARU"},"geometry":{"type":"Point","coordinates":[106.80732,-6.23732]}},{"id":"219","type":"Feature","properties":{"cat":"pusk","sector":"Health","name":"Puskesmas Kelurahan Selong","kel":"SELONG","kec":"KEBAYORAN BARU"},"geometry":{"type":"Point","coordinates":[106.81024,-6.2327]}},{"id":"220","type":"Feature","properties":{"cat":"pusk","sector":"Health","name":"Puskesmas Kelurahan Gunung","kel":"GUNUNG","kec":"KEBAYORAN BARU"},"geometry":{"type":"Point","coordinates":[106.79003,-6.23962]}},{"id":"221","type":"Feature","properties":{"cat":"pusk","sector":"Health","name":"Puskesmas Kelurahan Kramat Pela","kel":"MELAWAI","kec":"KEBAYORAN BARU"},"geometry":{"type":"Point","coordinates":[106.80599,-6.24577]}},{"id":"222","type":"Feature","properties":{"cat":"pusk","sector":"Health","name":"Puskesmas Kelurahan Petogogan","kel":"PETOGOGAN","kec":"KEBAYORAN BARU"},"geometry":{"type":"Point","coordinates":[106.80917,-6.24534]}},{"id":"223","type":"Feature","properties":{"cat":"pusk","sector":"Health","name":"Puskesmas Kelurahan Pulo","kel":"MELAWAI","kec":"KEBAYORAN BARU"},"geometry":{"type":"Point","coordinates":[106.80392,-6.24086]}},{"id":"224","type":"Feature","properties":{"cat":"pusk","sector":"Health","name":"Puskesmas Kelurahan Gandaria Utara I / PLT","kel":"GANDARIA UTARA","kec":"KEBAYORAN BARU"},"geometry":{"type":"Point","coordinates":[106.79655,-6.25745]}},{"id":"225","type":"Feature","properties":{"cat":"pusk","sector":"Health","name":"Puskesmas Kelurahan Gandaria Utara II / MHT","kel":"CIPETE UTARA","kec":"KEBAYORAN BARU"},"geometry":{"type":"Point","coordinates":[106.79861,-6.26577]}},{"id":"226","type":"Feature","properties":{"cat":"pusk","sector":"Health","name":"Puskesmas Kelurahan Cipete Utara","kel":"CIPETE UTARA","kec":"KEBAYORAN BARU"},"geometry":{"type":"Point","coordinates":[106.79846,-6.26558]}},{"id":"227","type":"Feature","properties":{"cat":"pusk","sector":"Health","name":"Puskesmas Kecamatan Mampang Prapatan","kel":"PELA MAMPANG","kec":"MAMPANG PRAPATAN"},"geometry":{"type":"Point","coordinates":[106.81149,-6.24882]}},{"id":"228","type":"Feature","properties":{"cat":"pusk","sector":"Health","name":"Puskesmas Kelurahan Kuningan Barat","kel":"KUNINGAN BARAT","kec":"MAMPANG PRAPATAN"},"geometry":{"type":"Point","coordinates":[106.8187,-6.23519]}},{"id":"229","type":"Feature","properties":{"cat":"pusk","sector":"Health","name":"Puskesmas Kelurahan Mampang Prapatan","kel":"TEGAL PARANG","kec":"MAMPANG PRAPATAN"},"geometry":{"type":"Point","coordinates":[106.83506,-6.2487]}},{"id":"230","type":"Feature","properties":{"cat":"pusk","sector":"Health","name":"Puskesmas Kelurahan Pela Mampang I","kel":"PELA MAMPANG","kec":"MAMPANG PRAPATAN"},"geometry":{"type":"Point","coordinates":[106.8217,-6.24653]}},{"id":"231","type":"Feature","properties":{"cat":"pusk","sector":"Health","name":"Puskesmas Kelurahan Tegal Parang","kel":"TEGAL PARANG","kec":"MAMPANG PRAPATAN"},"geometry":{"type":"Point","coordinates":[106.83398,-6.24961]}},{"id":"232","type":"Feature","properties":{"cat":"pusk","sector":"Health","name":"Puskesmas Kelurahan Bangka","kel":"BANGKA","kec":"MAMPANG PRAPATAN"},"geometry":{"type":"Point","coordinates":[106.81983,-6.27013]}},{"id":"233","type":"Feature","properties":{"cat":"pusk","sector":"Health","name":"Puskesmas Kecamatan Pancoran","kel":"DUREN TIGA","kec":"PANCORAN"},"geometry":{"type":"Point","coordinates":[106.83878,-6.2549]}},{"id":"234","type":"Feature","properties":{"cat":"pusk","sector":"Health","name":"Puskesmas Kelurahan Duren Tiga","kel":"DUREN TIGA","kec":"PANCORAN"},"geometry":{"type":"Point","coordinates":[106.84676,-6.25089]}},{"id":"235","type":"Feature","properties":{"cat":"pusk","sector":"Health","name":"Puskesmas Kelurahan Kalibata I","kel":"KALIBATA","kec":"PANCORAN"},"geometry":{"type":"Point","coordinates":[106.84582,-6.26106]}},{"id":"236","type":"Feature","properties":{"cat":"pusk","sector":"Health","name":"Puskesmas Kelurahan Kalibata II","kel":"KALIBATA","kec":"PANCORAN"},"geometry":{"type":"Point","coordinates":[106.84283,-6.26584]}},{"id":"237","type":"Feature","properties":{"cat":"pusk","sector":"Health","name":"Puskesmas Kelurahan Cikoko","kel":"CIKOKO","kec":"PANCORAN"},"geometry":{"type":"Point","coordinates":[106.85891,-6.24521]}},{"id":"238","type":"Feature","properties":{"cat":"pusk","sector":"Health","name":"Puskesmas Kelurahan Pengadegan","kel":"PENGADEGAN","kec":"PANCORAN"},"geometry":{"type":"Point","coordinates":[106.859,-6.25009]}},{"id":"239","type":"Feature","properties":{"cat":"pusk","sector":"Health","name":"Puskesmas Kelurahan Pancoran","kel":"PANCORAN","kec":"PANCORAN"},"geometry":{"type":"Point","coordinates":[106.83564,-6.24873]}},{"id":"240","type":"Feature","properties":{"cat":"pusk","sector":"Health","name":"Puskesmas Kelurahan Rawajati I","kel":"RAWA JATI","kec":"PANCORAN"},"geometry":{"type":"Point","coordinates":[106.85564,-6.26121]}},{"id":"241","type":"Feature","properties":{"cat":"pusk","sector":"Health","name":"Puskesmas Kelurahan RAWA JATI II","kel":"PEJATEN TIMUR","kec":"PASAR MINGGU"},"geometry":{"type":"Point","coordinates":[106.85107,-6.26799]}},{"id":"242","type":"Feature","properties":{"cat":"pusk","sector":"Health","name":"Puskesmas Kecamatan Tebet","kel":"TEBET TIMUR","kec":"TEBET"},"geometry":{"type":"Point","coordinates":[106.85674,-6.23527]}},{"id":"243","type":"Feature","properties":{"cat":"pusk","sector":"Health","name":"Puskesmas Kelurahan Menteng Dalam","kel":"MENTENG DALAM","kec":"TEBET"},"geometry":{"type":"Point","coordinates":[106.84073,-6.23382]}},{"id":"244","type":"Feature","properties":{"cat":"pusk","sector":"Health","name":"Puskesmas Kelurahan Tebet Barat","kel":"TEBET BARAT","kec":"TEBET"},"geometry":{"type":"Point","coordinates":[106.84925,-6.23271]}},{"id":"245","type":"Feature","properties":{"cat":"pusk","sector":"Health","name":"Puskesmas Kelurahan Kebon Baru","kel":"KEBON BARU","kec":"TEBET"},"geometry":{"type":"Point","coordinates":[106.85857,-6.22657]}},{"id":"246","type":"Feature","properties":{"cat":"pusk","sector":"Health","name":"Puskesmas Kelurahan Bukit Duri","kel":"BUKIT DURI","kec":"TEBET"},"geometry":{"type":"Point","coordinates":[106.85805,-6.21978]}},{"id":"247","type":"Feature","properties":{"cat":"pusk","sector":"Health","name":"Puskesmas Kelurahan Manggarai Selatan","kel":"MANGGARAI SELATAN","kec":"TEBET"},"geometry":{"type":"Point","coordinates":[106.84721,-6.21751]}},{"id":"248","type":"Feature","properties":{"cat":"pusk","sector":"Health","name":"Puskesmas Kelurahan Manggarai","kel":"PETUKANGAN UTARA","kec":"PESANGGRAHAN"},"geometry":{"type":"Point","coordinates":[106.75572,-6.22725]}},{"id":"249","type":"Feature","properties":{"cat":"pusk","sector":"Health","name":"Puskesmas Kecamatan Setiabudi","kel":"GUNTUR","kec":"SETIA BUDI"},"geometry":{"type":"Point","coordinates":[106.83393,-6.20697]}},{"id":"250","type":"Feature","properties":{"cat":"pusk","sector":"Health","name":"Puskesmas Kelurahan Setiabudi","kel":"SETIA BUDI","kec":"SETIA BUDI"},"geometry":{"type":"Point","coordinates":[106.8239,-6.2083]}},{"id":"251","type":"Feature","properties":{"cat":"pusk","sector":"Health","name":"Puskesmas Kelurahan Karet","kel":"KARET","kec":"SETIA BUDI"},"geometry":{"type":"Point","coordinates":[106.82393,-6.21411]}},{"id":"252","type":"Feature","properties":{"cat":"pusk","sector":"Health","name":"Puskesmas Kelurahan Pasar Manggis","kel":"PASAR MANGGIS","kec":"SETIA BUDI"},"geometry":{"type":"Point","coordinates":[106.83994,-6.21177]}},{"id":"253","type":"Feature","properties":{"cat":"pusk","sector":"Health","name":"Puskesmas Kelurahan  Menteng Atas","kel":"MENTENG","kec":"MENTENG"},"geometry":{"type":"Point","coordinates":[106.84109,-6.19937]}},{"id":"254","type":"Feature","properties":{"cat":"pusk","sector":"Health","name":"Puskesmas Kecamatan Pasar Rebo","kel":"PEKAYON","kec":"PASAR REBO"},"geometry":{"type":"Point","coordinates":[106.86164,-6.3392]}},{"id":"255","type":"Feature","properties":{"cat":"pusk","sector":"Health","name":"Puskesmas Kelurahan Baru","kel":"BARU","kec":"PASAR REBO"},"geometry":{"type":"Point","coordinates":[106.85303,-6.32383]}},{"id":"256","type":"Feature","properties":{"cat":"pusk","sector":"Health","name":"Puskesmas Kelurahan Gedong","kel":"GEDONG","kec":"PASAR REBO"},"geometry":{"type":"Point","coordinates":[106.8637,-6.2979]}},{"id":"257","type":"Feature","properties":{"cat":"pusk","sector":"Health","name":"Puskesmas kelurahan Cijantung","kel":"CIJANTUNG","kec":"PASAR REBO"},"geometry":{"type":"Point","coordinates":[106.85615,-6.32485]}},{"id":"258","type":"Feature","properties":{"cat":"pusk","sector":"Health","name":"Puskesmas Kelurahan Kalisari","kel":"KALISARI","kec":"PASAR REBO"},"geometry":{"type":"Point","coordinates":[106.85156,-6.33452]}},{"id":"259","type":"Feature","properties":{"cat":"pusk","sector":"Health","name":"Puskesmas Kelurahan Pekayon","kel":"BARU","kec":"PASAR REBO"},"geometry":{"type":"Point","coordinates":[106.85268,-6.32599]}},{"id":"260","type":"Feature","properties":{"cat":"pusk","sector":"Health","name":"Puskesmas Kecamatan Ciracas","kel":"SUSUKAN","kec":"CIRACAS"},"geometry":{"type":"Point","coordinates":[106.87527,-6.31155]}},{"id":"261","type":"Feature","properties":{"cat":"pusk","sector":"Health","name":"Puskesmas Kelurahan Rambutan","kel":"RAMBUTAN","kec":"CIRACAS"},"geometry":{"type":"Point","coordinates":[106.873,-6.29705]}},{"id":"262","type":"Feature","properties":{"cat":"pusk","sector":"Health","name":"Puskesmas Kelurahan Ciracas","kel":"CIBUBUR","kec":"CIRACAS"},"geometry":{"type":"Point","coordinates":[106.87396,-6.3459]}},{"id":"263","type":"Feature","properties":{"cat":"pusk","sector":"Health","name":"Puskesmas Kelurahan Cibubur","kel":"CIBUBUR","kec":"CIRACAS"},"geometry":{"type":"Point","coordinates":[106.87862,-6.35417]}},{"id":"264","type":"Feature","properties":{"cat":"pusk","sector":"Health","name":"Puskesmas Kelurahan Kelapa Dua Wetan","kel":"KELAPA DUA WETAN","kec":"CIRACAS"},"geometry":{"type":"Point","coordinates":[106.88358,-6.34703]}},{"id":"265","type":"Feature","properties":{"cat":"pusk","sector":"Health","name":"Puskesmas Kecamatan Cipayung","kel":"CIPAYUNG","kec":"CIPAYUNG"},"geometry":{"type":"Point","coordinates":[106.89989,-6.32486]}},{"id":"266","type":"Feature","properties":{"cat":"pusk","sector":"Health","name":"Puskesmas Kelurahan Lubang Buaya","kel":"LUBANG BUAYA","kec":"CIPAYUNG"},"geometry":{"type":"Point","coordinates":[106.90609,-6.29231]}},{"id":"267","type":"Feature","properties":{"cat":"pusk","sector":"Health","name":"Puskesmas Kelurahan Bambu Apus I","kel":"BAMBU APUS","kec":"CIPAYUNG"},"geometry":{"type":"Point","coordinates":[106.90849,-6.30541]}},{"id":"268","type":"Feature","properties":{"cat":"pusk","sector":"Health","name":"Puskesmas Kelurahan Bambu Apus II","kel":"BAMBU APUS","kec":"CIPAYUNG"},"geometry":{"type":"Point","coordinates":[106.90664,-6.30212]}},{"id":"269","type":"Feature","properties":{"cat":"pusk","sector":"Health","name":"Puskesmas Kelurahan Cipayung","kel":"CIPAYUNG","kec":"CIPAYUNG"},"geometry":{"type":"Point","coordinates":[106.89513,-6.33174]}},{"id":"270","type":"Feature","properties":{"cat":"pusk","sector":"Health","name":"Puskesmas Kelurahan Munjul","kel":"MUNJUL","kec":"CIPAYUNG"},"geometry":{"type":"Point","coordinates":[106.89835,-6.35488]}},{"id":"271","type":"Feature","properties":{"cat":"pusk","sector":"Health","name":"Puskesmas Kelurahan Ceger","kel":"CEGER","kec":"CIPAYUNG"},"geometry":{"type":"Point","coordinates":[106.89203,-6.31561]}},{"id":"272","type":"Feature","properties":{"cat":"pusk","sector":"Health","name":"Puskesmas Kelurahan Setu","kel":"BAMBU APUS","kec":"CIPAYUNG"},"geometry":{"type":"Point","coordinates":[106.89916,-6.31209]}},{"id":"273","type":"Feature","properties":{"cat":"pusk","sector":"Health","name":"Puskesmas Kelurahan Cilangkap","kel":"CILANGKAP","kec":"CIPAYUNG"},"geometry":{"type":"Point","coordinates":[106.90576,-6.34452]}},{"id":"274","type":"Feature","properties":{"cat":"pusk","sector":"Health","name":"Puskesmas Kelurahan Pondok Ranggon","kel":"GUNUNG","kec":"KEBAYORAN BARU"},"geometry":{"type":"Point","coordinates":[106.79416,-6.23846]}},{"id":"275","type":"Feature","properties":{"cat":"pusk","sector":"Health","name":"Puskesmas Kecamatan Makasar","kel":"MAKASAR","kec":"MAKASAR"},"geometry":{"type":"Point","coordinates":[106.87706,-6.28322]}},{"id":"276","type":"Feature","properties":{"cat":"pusk","sector":"Health","name":"Puskesmas Kelurahan Cipinang Melayu","kel":"CIPINANG MELAYU","kec":"MAKASAR"},"geometry":{"type":"Point","coordinates":[106.89998,-6.24585]}},{"id":"277","type":"Feature","properties":{"cat":"pusk","sector":"Health","name":"Puskesmas Kelurahan Halim Perdana Kusuma II","kel":"HALIM PERDANA KUSUMAH","kec":"MAKASAR"},"geometry":{"type":"Point","coordinates":[106.87805,-6.26737]}},{"id":"278","type":"Feature","properties":{"cat":"pusk","sector":"Health","name":"Puskesmas Kelurahan Kebon Pala","kel":"KEBON PALA","kec":"MAKASAR"},"geometry":{"type":"Point","coordinates":[106.88096,-6.26132]}},{"id":"279","type":"Feature","properties":{"cat":"pusk","sector":"Health","name":"Puskesmas Kelurahan Pinang Ranti","kel":"PINANG RANTI","kec":"MAKASAR"},"geometry":{"type":"Point","coordinates":[106.88325,-6.29321]}},{"id":"280","type":"Feature","properties":{"cat":"pusk","sector":"Health","name":"Puskesmas Kelurahan Makasar","kel":"MAKASAR","kec":"MAKASAR"},"geometry":{"type":"Point","coordinates":[106.87575,-6.27148]}},{"id":"281","type":"Feature","properties":{"cat":"pusk","sector":"Health","name":"Puskesmas Kecamatan Kramat Jati","kel":"KRAMAT JATI","kec":"KRAMAT JATI"},"geometry":{"type":"Point","coordinates":[106.87137,-6.27777]}},{"id":"282","type":"Feature","properties":{"cat":"pusk","sector":"Health","name":"Puskesmas Kelurahan Cawang","kel":"CAWANG","kec":"KRAMAT JATI"},"geometry":{"type":"Point","coordinates":[106.86593,-6.25284]}},{"id":"283","type":"Feature","properties":{"cat":"pusk","sector":"Health","name":"Puskesmas Kelurahan Cililitan","kel":"CILILITAN","kec":"KRAMAT JATI"},"geometry":{"type":"Point","coordinates":[106.85837,-6.26656]}},{"id":"284","type":"Feature","properties":{"cat":"pusk","sector":"Health","name":"Puskesmas Kelurahan Kramat Jati","kel":"KRAMAT JATI","kec":"KRAMAT JATI"},"geometry":{"type":"Point","coordinates":[106.868,-6.26955]}},{"id":"285","type":"Feature","properties":{"cat":"pusk","sector":"Health","name":"Puskesmas Kelurahan Batu Ampar","kel":"BATU AMPAR","kec":"KRAMAT JATI"},"geometry":{"type":"Point","coordinates":[106.86237,-6.27249]}},{"id":"286","type":"Feature","properties":{"cat":"pusk","sector":"Health","name":"Puskesmas Kelurahan Balekambang","kel":"BALE KAMBANG","kec":"KRAMAT JATI"},"geometry":{"type":"Point","coordinates":[106.853,-6.2845]}},{"id":"287","type":"Feature","properties":{"cat":"pusk","sector":"Health","name":"Puskesmas Kelurahan Tengah","kel":"JATI PADANG","kec":"PASAR MINGGU"},"geometry":{"type":"Point","coordinates":[106.82591,-6.28764]}},{"id":"288","type":"Feature","properties":{"cat":"pusk","sector":"Health","name":"Puskesmas Kelurahan Dukuh","kel":"DUKUH","kec":"KRAMAT JATI"},"geometry":{"type":"Point","coordinates":[106.8794,-6.3009]}},{"id":"289","type":"Feature","properties":{"cat":"pusk","sector":"Health","name":"Puskesmas Kecamatan Jatinegara","kel":"BALI MESTER","kec":"JATINEGARA"},"geometry":{"type":"Point","coordinates":[106.86237,-6.21412]}},{"id":"290","type":"Feature","properties":{"cat":"pusk","sector":"Health","name":"Puskesmas Kelurahan Kampung Melayu","kel":"KAMPUNG MELAYU","kec":"JATINEGARA"},"geometry":{"type":"Point","coordinates":[106.85947,-6.21456]}},{"id":"291","type":"Feature","properties":{"cat":"pusk","sector":"Health","name":"Puskesmas Kelurahan Balimester","kel":"BALI MESTER","kec":"JATINEGARA"},"geometry":{"type":"Point","coordinates":[106.86741,-6.22524]}},{"id":"292","type":"Feature","properties":{"cat":"pusk","sector":"Health","name":"Puskesmas Kelurahan Bidara Cina I","kel":"BIDARA CINA","kec":"JATINEGARA"},"geometry":{"type":"Point","coordinates":[106.86807,-6.23873]}},{"id":"293","type":"Feature","properties":{"cat":"pusk","sector":"Health","name":"Puskesmas Kelurahan Bidara Cina II","kel":"BIDARA CINA","kec":"JATINEGARA"},"geometry":{"type":"Point","coordinates":[106.86651,-6.24196]}},{"id":"294","type":"Feature","properties":{"cat":"pusk","sector":"Health","name":"Puskesmas Kelurahan Bidara Cina III","kel":"BIDARA CINA","kec":"JATINEGARA"},"geometry":{"type":"Point","coordinates":[106.868,-6.23875]}},{"id":"295","type":"Feature","properties":{"cat":"pusk","sector":"Health","name":"Puskesmas Kelurahan Cipinang Cempedak","kel":"CIPINANG CEMPEDAK","kec":"JATINEGARA"},"geometry":{"type":"Point","coordinates":[106.8735,-6.23891]}},{"id":"296","type":"Feature","properties":{"cat":"pusk","sector":"Health","name":"Puskesmas Kelurahan Rawabunga","kel":"BALI MESTER","kec":"JATINEGARA"},"geometry":{"type":"Point","coordinates":[106.86783,-6.21965]}},{"id":"297","type":"Feature","properties":{"cat":"pusk","sector":"Health","name":"Puskesmas Kelurahan Cipinang Muara","kel":"CIPINANG MUARA","kec":"JATINEGARA"},"geometry":{"type":"Point","coordinates":[106.8935,-6.219]}},{"id":"298","type":"Feature","properties":{"cat":"pusk","sector":"Health","name":"Puskesmas Kelurahan Cipinang Besar Utara","kel":"CIPINANG BESAR UTARA","kec":"JATINEGARA"},"geometry":{"type":"Point","coordinates":[106.88162,-6.21882]}},{"id":"299","type":"Feature","properties":{"cat":"pusk","sector":"Health","name":"Puskesmas Kelurahan Cipinang Besar Selatan I","kel":"CIPINANG BESAR SELATAN","kec":"JATINEGARA"},"geometry":{"type":"Point","coordinates":[106.88327,-6.22434]}},{"id":"300","type":"Feature","properties":{"cat":"pusk","sector":"Health","name":"Puskesmas Kelurahan Cipinang Besar Selatan II","kel":"CIPINANG BESAR SELATAN","kec":"JATINEGARA"},"geometry":{"type":"Point","coordinates":[106.88193,-6.2359]}},{"id":"301","type":"Feature","properties":{"cat":"pusk","sector":"Health","name":"Puskesmas Kecamatan Duren Sawit","kel":"DUREN SAWIT","kec":"DUREN SAWIT"},"geometry":{"type":"Point","coordinates":[106.91109,-6.24202]}},{"id":"302","type":"Feature","properties":{"cat":"pusk","sector":"Health","name":"Puskesmas Kelurahan Pondok Bambu I","kel":"PONDOK BAMBU","kec":"DUREN SAWIT"},"geometry":{"type":"Point","coordinates":[106.90073,-6.24017]}},{"id":"303","type":"Feature","properties":{"cat":"pusk","sector":"Health","name":"Puskesmas Kelurahan Pondok Bambu ll","kel":"PONDOK BAMBU","kec":"DUREN SAWIT"},"geometry":{"type":"Point","coordinates":[106.89577,-6.22343]}},{"id":"304","type":"Feature","properties":{"cat":"pusk","sector":"Health","name":"Puskesmas Kelurahan Klender I","kel":"KLENDER","kec":"DUREN SAWIT"},"geometry":{"type":"Point","coordinates":[106.89677,-6.21371]}},{"id":"305","type":"Feature","properties":{"cat":"pusk","sector":"Health","name":"Puskesmas Kelurahan Klender ll","kel":"KLENDER","kec":"DUREN SAWIT"},"geometry":{"type":"Point","coordinates":[106.90788,-6.2165]}},{"id":"306","type":"Feature","properties":{"cat":"pusk","sector":"Health","name":"Puskesmas Kelurahan Klender lll","kel":"KLENDER","kec":"DUREN SAWIT"},"geometry":{"type":"Point","coordinates":[106.90883,-6.21706]}},{"id":"307","type":"Feature","properties":{"cat":"pusk","sector":"Health","name":"Puskesmas Kelurahan Duren Sawit","kel":"DUREN SAWIT","kec":"DUREN SAWIT"},"geometry":{"type":"Point","coordinates":[106.91463,-6.23098]}},{"id":"308","type":"Feature","properties":{"cat":"pusk","sector":"Health","name":"Puskesmas Kelurahan Malaka Jaya","kel":"MALAKA JAYA","kec":"DUREN SAWIT"},"geometry":{"type":"Point","coordinates":[106.93298,-6.22196]}},{"id":"309","type":"Feature","properties":{"cat":"pusk","sector":"Health","name":"Puskesmas Kelurahan Malaka Sari","kel":"MALAKA SARI","kec":"DUREN SAWIT"},"geometry":{"type":"Point","coordinates":[106.93056,-6.22605]}},{"id":"310","type":"Feature","properties":{"cat":"pusk","sector":"Health","name":"Puskesmas Kelurahan Pondok Kopi I","kel":"PONDOK KOPI","kec":"DUREN SAWIT"},"geometry":{"type":"Point","coordinates":[106.93928,-6.23155]}},{"id":"311","type":"Feature","properties":{"cat":"pusk","sector":"Health","name":"Puskesmas Kelurahan Pondok Kopi ll","kel":"PONDOK KOPI","kec":"DUREN SAWIT"},"geometry":{"type":"Point","coordinates":[106.94492,-6.22544]}},{"id":"312","type":"Feature","properties":{"cat":"pusk","sector":"Health","name":"Puskesmas Kelurahan Pondok Kelapa","kel":"PONDOK KELAPA","kec":"DUREN SAWIT"},"geometry":{"type":"Point","coordinates":[106.93498,-6.23945]}},{"id":"313","type":"Feature","properties":{"cat":"pusk","sector":"Health","name":"Puskesmas Kecamatan Cakung","kel":"JATINEGARA","kec":"CAKUNG"},"geometry":{"type":"Point","coordinates":[106.9055,-6.19792]}},{"id":"314","type":"Feature","properties":{"cat":"pusk","sector":"Health","name":"Puskesmas Kelurahan Rawa Terate","kel":"RAWA TERATE","kec":"CAKUNG"},"geometry":{"type":"Point","coordinates":[106.92298,-6.18233]}},{"id":"315","type":"Feature","properties":{"cat":"pusk","sector":"Health","name":"Puskesmas Kelurahan Jatinegara","kel":"JATINEGARA","kec":"CAKUNG"},"geometry":{"type":"Point","coordinates":[106.90498,-6.20319]}},{"id":"316","type":"Feature","properties":{"cat":"pusk","sector":"Health","name":"Puskesmas Kelurahan Penggilingan Elok","kel":"PENGGILINGAN","kec":"CAKUNG"},"geometry":{"type":"Point","coordinates":[106.94033,-6.20016]}},{"id":"317","type":"Feature","properties":{"cat":"pusk","sector":"Health","name":"Puskesmas Kelurahan Penggilingan II","kel":"PENGGILINGAN","kec":"CAKUNG"},"geometry":{"type":"Point","coordinates":[106.93405,-6.20404]}},{"id":"318","type":"Feature","properties":{"cat":"pusk","sector":"Health","name":"Puskesmas Kelurahan Cakung Timur","kel":"CAKUNG TIMUR","kec":"CAKUNG"},"geometry":{"type":"Point","coordinates":[106.95766,-6.18266]}},{"id":"319","type":"Feature","properties":{"cat":"pusk","sector":"Health","name":"Puskesmas Kelurahan Cakung Barat","kel":"CAKUNG BARAT","kec":"CAKUNG"},"geometry":{"type":"Point","coordinates":[106.93283,-6.17258]}},{"id":"320","type":"Feature","properties":{"cat":"pusk","sector":"Health","name":"Puskesmas Kelurahan Ujung Menteng","kel":"UJUNG MENTENG","kec":"CAKUNG"},"geometry":{"type":"Point","coordinates":[106.96004,-6.18697]}},{"id":"321","type":"Feature","properties":{"cat":"pusk","sector":"Health","name":"Puskesmas Kelurahan Pulo Gebang","kel":"PULO GEBANG","kec":"CAKUNG"},"geometry":{"type":"Point","coordinates":[106.95444,-6.21593]}},{"id":"322","type":"Feature","properties":{"cat":"pusk","sector":"Health","name":"Puskesmas Kecamatan Pulogadung","kel":"PULO GADUNG","kec":"PULO GADUNG"},"geometry":{"type":"Point","coordinates":[106.89552,-6.18671]}},{"id":"323","type":"Feature","properties":{"cat":"pusk","sector":"Health","name":"Puskesmas Kelurahan Kayu Putih","kel":"KAYU PUTIH","kec":"PULO GADUNG"},"geometry":{"type":"Point","coordinates":[106.88601,-6.18706]}},{"id":"324","type":"Feature","properties":{"cat":"pusk","sector":"Health","name":"Puskesmas Kelurahan Jati I","kel":"JATI","kec":"PULO GADUNG"},"geometry":{"type":"Point","coordinates":[106.8929,-6.19235]}},{"id":"325","type":"Feature","properties":{"cat":"pusk","sector":"Health","name":"Puskesmas Kelurahan Jati II","kel":"JATI","kec":"PULO GADUNG"},"geometry":{"type":"Point","coordinates":[106.89895,-6.19019]}},{"id":"326","type":"Feature","properties":{"cat":"pusk","sector":"Health","name":"Puskesmas Kelurahan Rawamangun","kel":"RAWAMANGUN","kec":"PULO GADUNG"},"geometry":{"type":"Point","coordinates":[106.88397,-6.19828]}},{"id":"327","type":"Feature","properties":{"cat":"pusk","sector":"Health","name":"Puskesmas Kelurahan Pisangan Timur I","kel":"PISANGAN TIMUR","kec":"PULO GADUNG"},"geometry":{"type":"Point","coordinates":[106.88206,-6.20613]}},{"id":"328","type":"Feature","properties":{"cat":"pusk","sector":"Health","name":"Puskesmas Kelurahan Pisangan Timur II","kel":"PISANGAN TIMUR","kec":"PULO GADUNG"},"geometry":{"type":"Point","coordinates":[106.87797,-6.20893]}},{"id":"329","type":"Feature","properties":{"cat":"pusk","sector":"Health","name":"Puskesmas Kelurahan Cipinang","kel":"CIPINANG","kec":"PULO GADUNG"},"geometry":{"type":"Point","coordinates":[106.895,-6.20586]}},{"id":"330","type":"Feature","properties":{"cat":"pusk","sector":"Health","name":"Puskesmas Kelurahan Jatinegara Kaum","kel":"JATINEGARA KAUM","kec":"PULO GADUNG"},"geometry":{"type":"Point","coordinates":[106.89798,-6.2094]}},{"id":"331","type":"Feature","properties":{"cat":"pusk","sector":"Health","name":"Puskesmas Kecamatan Matraman","kel":"PISANGAN BARU","kec":"MATRAMAN"},"geometry":{"type":"Point","coordinates":[106.87266,-6.21377]}},{"id":"332","type":"Feature","properties":{"cat":"pusk","sector":"Health","name":"Puskesmas Kelurahan Kayu Manis","kel":"KAYU MANIS","kec":"MATRAMAN"},"geometry":{"type":"Point","coordinates":[106.86069,-6.19812]}},{"id":"333","type":"Feature","properties":{"cat":"pusk","sector":"Health","name":"Puskesmas Kelurahan Utan Kayu Utara","kel":"UTAN KAYU UTARA","kec":"MATRAMAN"},"geometry":{"type":"Point","coordinates":[106.8714,-6.19361]}},{"id":"334","type":"Feature","properties":{"cat":"pusk","sector":"Health","name":"Puskesmas Kelurahan Utan Kayu Selatan I","kel":"UTAN KAYU SELATAN","kec":"MATRAMAN"},"geometry":{"type":"Point","coordinates":[106.87203,-6.20783]}},{"id":"335","type":"Feature","properties":{"cat":"pusk","sector":"Health","name":"Puskesmas Kelurahan Palmeriam","kel":"PAL MERIAM","kec":"MATRAMAN"},"geometry":{"type":"Point","coordinates":[106.85905,-6.2054]}},{"id":"336","type":"Feature","properties":{"cat":"pusk","sector":"Health","name":"Puskesmas Kelurahan Utan Kayu Selatan II","kel":"UTAN KAYU SELATAN","kec":"MATRAMAN"},"geometry":{"type":"Point","coordinates":[106.86899,-6.19847]}},{"id":"337","type":"Feature","properties":{"cat":"pusk","sector":"Health","name":"Puskesmas Kelurahan Kampung Bali","kel":"KAMPUNG BALI","kec":"TANAH ABANG"},"geometry":{"type":"Point","coordinates":[106.81705,-6.18565]}},{"id":"338","type":"Feature","properties":{"cat":"pusk","sector":"Health","name":"Puskesmas Kelurahan Petamburan","kel":"PETAMBURAN","kec":"TANAH ABANG"},"geometry":{"type":"Point","coordinates":[106.80838,-6.1963]}},{"id":"339","type":"Feature","properties":{"cat":"pusk","sector":"Health","name":"Puskesmas Kelurahan Karet Tengsin","kel":"KARET TENGSIN","kec":"TANAH ABANG"},"geometry":{"type":"Point","coordinates":[106.81521,-6.21209]}},{"id":"340","type":"Feature","properties":{"cat":"pusk","sector":"Health","name":"Puskesmas Kelurahan Gelora","kel":"GELORA","kec":"TANAH ABANG"},"geometry":{"type":"Point","coordinates":[106.79672,-6.21125]}},{"id":"341","type":"Feature","properties":{"cat":"pusk","sector":"Health","name":"Puskesmas Kecamatan Menteng","kel":"MENTENG","kec":"MENTENG"},"geometry":{"type":"Point","coordinates":[106.84127,-6.19969]}},{"id":"342","type":"Feature","properties":{"cat":"pusk","sector":"Health","name":"Puskesmas Kelurahan Pegangsaan","kel":"PEGANGSAAN","kec":"MENTENG"},"geometry":{"type":"Point","coordinates":[106.84824,-6.207]}},{"id":"343","type":"Feature","properties":{"cat":"pusk","sector":"Health","name":"Puskesmas Kelurahan Kenari","kel":"KENARI","kec":"SENEN"},"geometry":{"type":"Point","coordinates":[106.84553,-6.19132]}},{"id":"344","type":"Feature","properties":{"cat":"pusk","sector":"Health","name":"Puskesmas Kelurahan Kramat","kel":"PASEBAN","kec":"SENEN"},"geometry":{"type":"Point","coordinates":[106.85097,-6.18834]}},{"id":"345","type":"Feature","properties":{"cat":"pusk","sector":"Health","name":"Puskesmas Kelurahan Bungur","kel":"GUNUNG SAHARI SELATAN","kec":"KEMAYORAN"},"geometry":{"type":"Point","coordinates":[106.84218,-6.16929]}},{"id":"346","type":"Feature","properties":{"cat":"pusk","sector":"Health","name":"Puskesmas Kelurahan Paseban","kel":"PASEBAN","kec":"SENEN"},"geometry":{"type":"Point","coordinates":[106.85302,-6.18991]}},{"id":"347","type":"Feature","properties":{"cat":"pusk","sector":"Health","name":"Puskesmas Kelurahan Kwitang","kel":"KWITANG","kec":"SENEN"},"geometry":{"type":"Point","coordinates":[106.83832,-6.1827]}},{"id":"348","type":"Feature","properties":{"cat":"pusk","sector":"Health","name":"Puskesmas Kelurahan Tanah Tinggi","kel":"TANAH TINGGI","kec":"JOHAR BARU"},"geometry":{"type":"Point","coordinates":[106.84566,-6.17621]}},{"id":"349","type":"Feature","properties":{"cat":"pusk","sector":"Health","name":"Puskesmas Kelurahan Johar Baru II","kel":"JOHAR BARU","kec":"JOHAR BARU"},"geometry":{"type":"Point","coordinates":[106.85615,-6.18576]}},{"id":"350","type":"Feature","properties":{"cat":"pusk","sector":"Health","name":"Puskesmas Kelurahan Johar Baru III","kel":"JOHAR BARU","kec":"JOHAR BARU"},"geometry":{"type":"Point","coordinates":[106.85217,-6.18216]}},{"id":"351","type":"Feature","properties":{"cat":"pusk","sector":"Health","name":"Puskesmas Kelurahan Galur","kel":"GALUR","kec":"JOHAR BARU"},"geometry":{"type":"Point","coordinates":[106.85681,-6.17688]}},{"id":"352","type":"Feature","properties":{"cat":"pusk","sector":"Health","name":"Puskesmas Kelurahan Kampung Rawa","kel":"KEBON JERUK","kec":"KEBON JERUK"},"geometry":{"type":"Point","coordinates":[106.77869,-6.18772]}},{"id":"353","type":"Feature","properties":{"cat":"pusk","sector":"Health","name":"Puskesmas Kecamatan Cempaka Putih","kel":"RAWASARI","kec":"CEMPAKA PUTIH"},"geometry":{"type":"Point","coordinates":[106.87063,-6.19042]}},{"id":"354","type":"Feature","properties":{"cat":"pusk","sector":"Health","name":"Puskesmas Kelurahan Rawasari","kel":"RAWASARI","kec":"CEMPAKA PUTIH"},"geometry":{"type":"Point","coordinates":[106.86955,-6.18994]}},{"id":"355","type":"Feature","properties":{"cat":"pusk","sector":"Health","name":"Puskesmas Kelurahan Cempaka Putih Barat II","kel":"CEMPAKA PUTIH BARAT","kec":"CEMPAKA PUTIH"},"geometry":{"type":"Point","coordinates":[106.86567,-6.18256]}},{"id":"356","type":"Feature","properties":{"cat":"pusk","sector":"Health","name":"Puskesmas Kecamatan Kemayoran","kel":"HARAPAN MULIA","kec":"KEMAYORAN"},"geometry":{"type":"Point","coordinates":[106.85539,-6.17137]}},{"id":"357","type":"Feature","properties":{"cat":"pusk","sector":"Health","name":"Puskesmas Kelurahan Kebon Kosong I","kel":"KEBON KOSONG","kec":"KEMAYORAN"},"geometry":{"type":"Point","coordinates":[106.85364,-6.15765]}},{"id":"358","type":"Feature","properties":{"cat":"pusk","sector":"Health","name":"Puskesmas Kelurahan Kebon Kosong II","kel":"KEBON KOSONG","kec":"KEMAYORAN"},"geometry":{"type":"Point","coordinates":[106.857,-6.15664]}},{"id":"359","type":"Feature","properties":{"cat":"pusk","sector":"Health","name":"Puskesmas Kelurahan Serdang","kel":"SERDANG","kec":"KEMAYORAN"},"geometry":{"type":"Point","coordinates":[106.86,-6.16177]}},{"id":"360","type":"Feature","properties":{"cat":"pusk","sector":"Health","name":"Puskesmas Kelurahan Utan Panjang","kel":"UTAN PANJANG","kec":"KEMAYORAN"},"geometry":{"type":"Point","coordinates":[106.85492,-6.1624]}},{"id":"361","type":"Feature","properties":{"cat":"pusk","sector":"Health","name":"Puskesmas Kelurahan Cempaka Baru","kel":"CEMPAKA BARU","kec":"KEMAYORAN"},"geometry":{"type":"Point","coordinates":[106.86011,-6.1702]}},{"id":"362","type":"Feature","properties":{"cat":"pusk","sector":"Health","name":"Puskesmas Kelurahan Sumur Batu","kel":"SUMUR BATU","kec":"KEMAYORAN"},"geometry":{"type":"Point","coordinates":[106.86882,-6.16672]}},{"id":"363","type":"Feature","properties":{"cat":"pusk","sector":"Health","name":"Puskesmas Kecamatan Sawah Besar","kel":"MANGGA DUA SELATAN","kec":"SAWAH BESAR"},"geometry":{"type":"Point","coordinates":[106.82711,-6.13716]}},{"id":"364","type":"Feature","properties":{"cat":"pusk","sector":"Health","name":"Puskesmas Kelurahan Pasar Baru","kel":"PASAR BARU","kec":"SAWAH BESAR"},"geometry":{"type":"Point","coordinates":[106.83217,-6.15976]}},{"id":"365","type":"Feature","properties":{"cat":"pusk","sector":"Health","name":"Puskesmas Kelurahan Duri Pulo","kel":"DURI PULO","kec":"GAMBIR"},"geometry":{"type":"Point","coordinates":[106.81011,-6.1624]}},{"id":"366","type":"Feature","properties":{"cat":"pusk","sector":"Health","name":"Puskesmas Kelurahan Petojo Utara","kel":"PETOJO UTARA","kec":"GAMBIR"},"geometry":{"type":"Point","coordinates":[106.81257,-6.16747]}},{"id":"367","type":"Feature","properties":{"cat":"pusk","sector":"Health","name":"Puskesmas Kelurahan Petojo Selatan","kel":"PETOJO SELATAN","kec":"GAMBIR"},"geometry":{"type":"Point","coordinates":[106.81509,-6.17708]}},{"id":"368","type":"Feature","properties":{"cat":"pusk","sector":"Health","name":"Puskesmas Kecamatan Kembangan","kel":"KEMBANGAN UTARA","kec":"KEMBANGAN"},"geometry":{"type":"Point","coordinates":[106.74179,-6.18177]}},{"id":"369","type":"Feature","properties":{"cat":"pusk","sector":"Health","name":"Puskesmas Kelurahan Meruya Utara","kel":"MERUYA UTARA","kec":"KEMBANGAN"},"geometry":{"type":"Point","coordinates":[106.74138,-6.19966]}},{"id":"370","type":"Feature","properties":{"cat":"pusk","sector":"Health","name":"Puskesmas Kelurahan Meruya Selatan I","kel":"MERUYA SELATAN","kec":"KEMBANGAN"},"geometry":{"type":"Point","coordinates":[106.73837,-6.20962]}},{"id":"371","type":"Feature","properties":{"cat":"pusk","sector":"Health","name":"Puskesmas Kelurahan Meruya Selatan II","kel":"MERUYA SELATAN","kec":"KEMBANGAN"},"geometry":{"type":"Point","coordinates":[106.72419,-6.21444]}},{"id":"372","type":"Feature","properties":{"cat":"pusk","sector":"Health","name":"Puskesmas Kelurahan Joglo I","kel":"JOGLO","kec":"KEMBANGAN"},"geometry":{"type":"Point","coordinates":[106.7315,-6.22092]}},{"id":"373","type":"Feature","properties":{"cat":"pusk","sector":"Health","name":"Puskesmas Kelurahan Joglo II","kel":"JOGLO","kec":"KEMBANGAN"},"geometry":{"type":"Point","coordinates":[106.7253,-6.21831]}},{"id":"374","type":"Feature","properties":{"cat":"pusk","sector":"Health","name":"Puskesmas Kelurahan Srengseng","kel":"SRENGSENG","kec":"KEMBANGAN"},"geometry":{"type":"Point","coordinates":[106.75705,-6.20353]}},{"id":"375","type":"Feature","properties":{"cat":"pusk","sector":"Health","name":"Puskesmas Kelurahan Kembangan Selatan","kel":"KEMBANGAN SELATAN","kec":"KEMBANGAN"},"geometry":{"type":"Point","coordinates":[106.72373,-6.18978]}},{"id":"376","type":"Feature","properties":{"cat":"pusk","sector":"Health","name":"Puskesmas Kecamatan Kebon Jeruk","kel":"KEBON JERUK","kec":"KEBON JERUK"},"geometry":{"type":"Point","coordinates":[106.76525,-6.19883]}},{"id":"377","type":"Feature","properties":{"cat":"pusk","sector":"Health","name":"Puskesmas Kelurahan Kedoya Selatan","kel":"KEDOYA SELATAN","kec":"KEBON JERUK"},"geometry":{"type":"Point","coordinates":[106.75858,-6.17955]}},{"id":"378","type":"Feature","properties":{"cat":"pusk","sector":"Health","name":"Puskesmas Kelurahan Duri Kepa","kel":"DURI KEPA","kec":"KEBON JERUK"},"geometry":{"type":"Point","coordinates":[106.77678,-6.17847]}},{"id":"379","type":"Feature","properties":{"cat":"pusk","sector":"Health","name":"Puskesmas Kelurahan Kebon Jeruk","kel":"KEBON JERUK","kec":"KEBON JERUK"},"geometry":{"type":"Point","coordinates":[106.77993,-6.19028]}},{"id":"380","type":"Feature","properties":{"cat":"pusk","sector":"Health","name":"Puskesmas Kelurahan Sukabumi Selatan","kel":"KELAPA DUA","kec":"KEBON JERUK"},"geometry":{"type":"Point","coordinates":[106.76994,-6.21121]}},{"id":"381","type":"Feature","properties":{"cat":"pusk","sector":"Health","name":"Puskesmas Kelurahan Sukabumi Utara","kel":"SUKABUMI UTARA","kec":"KEBON JERUK"},"geometry":{"type":"Point","coordinates":[106.77445,-6.20328]}},{"id":"382","type":"Feature","properties":{"cat":"pusk","sector":"Health","name":"Puskesmas Kelurahan Kelapa Dua","kel":"KELAPA DUA","kec":"KEBON JERUK"},"geometry":{"type":"Point","coordinates":[106.77053,-6.20827]}},{"id":"383","type":"Feature","properties":{"cat":"pusk","sector":"Health","name":"Puskesmas Kelurahan Kedoya Utara","kel":"KEDOYA UTARA","kec":"KEBON JERUK"},"geometry":{"type":"Point","coordinates":[106.7641,-6.17264]}},{"id":"384","type":"Feature","properties":{"cat":"pusk","sector":"Health","name":"Puskesmas Kecamatan Palmerah","kel":"PALMERAH","kec":"PALMERAH"},"geometry":{"type":"Point","coordinates":[106.78884,-6.20815]}},{"id":"385","type":"Feature","properties":{"cat":"pusk","sector":"Health","name":"Puskesmas Kelurahan Jatipulo I","kel":"JATI PULO","kec":"PALMERAH"},"geometry":{"type":"Point","coordinates":[106.80399,-6.17695]}},{"id":"386","type":"Feature","properties":{"cat":"pusk","sector":"Health","name":"Puskesmas Kelurahan Jatipulo II","kel":"JATI PULO","kec":"PALMERAH"},"geometry":{"type":"Point","coordinates":[106.80805,-6.17913]}},{"id":"387","type":"Feature","properties":{"cat":"pusk","sector":"Health","name":"Puskesmas Kelurahan Kota Bambu Selatan","kel":"KOTA BAMBU SELATAN","kec":"PALMERAH"},"geometry":{"type":"Point","coordinates":[106.807,-6.18637]}},{"id":"388","type":"Feature","properties":{"cat":"pusk","sector":"Health","name":"Puskesmas Kelurahan Kota Bambu Utara","kel":"KOTA BAMBU UTARA","kec":"PALMERAH"},"geometry":{"type":"Point","coordinates":[106.80576,-6.18529]}},{"id":"389","type":"Feature","properties":{"cat":"pusk","sector":"Health","name":"Puskesmas Kelurahan Slipi I","kel":"PETAMBURAN","kec":"TANAH ABANG"},"geometry":{"type":"Point","coordinates":[106.80775,-6.19615]}},{"id":"390","type":"Feature","properties":{"cat":"pusk","sector":"Health","name":"Puskesmas Kelurahan Slipi II","kel":"SLIPI","kec":"PALMERAH"},"geometry":{"type":"Point","coordinates":[106.80146,-6.1972]}},{"id":"391","type":"Feature","properties":{"cat":"pusk","sector":"Health","name":"Puskesmas Kelurahan Palmerah I","kel":"PALMERAH","kec":"PALMERAH"},"geometry":{"type":"Point","coordinates":[106.789,-6.20804]}},{"id":"392","type":"Feature","properties":{"cat":"pusk","sector":"Health","name":"Puskesmas Kelurahan Palmerah II","kel":"PALMERAH","kec":"PALMERAH"},"geometry":{"type":"Point","coordinates":[106.787,-6.20216]}},{"id":"393","type":"Feature","properties":{"cat":"pusk","sector":"Health","name":"Puskesmas Kelurahan Kemanggisan","kel":"KEMANGGISAN","kec":"PALMERAH"},"geometry":{"type":"Point","coordinates":[106.79597,-6.19161]}},{"id":"394","type":"Feature","properties":{"cat":"pusk","sector":"Health","name":"Puskesmas Kecamatan Grogol Petamburan","kel":"WIJAYA KUSUMA","kec":"GROGOL PETAMBURAN"},"geometry":{"type":"Point","coordinates":[106.77612,-6.14996]}},{"id":"395","type":"Feature","properties":{"cat":"pusk","sector":"Health","name":"Puskesmas Kelurahan Grogol I","kel":"GROGOL","kec":"GROGOL PETAMBURAN"},"geometry":{"type":"Point","coordinates":[106.79604,-6.16017]}},{"id":"396","type":"Feature","properties":{"cat":"pusk","sector":"Health","name":"Puskesmas Kelurahan Grogol II","kel":"GROGOL","kec":"GROGOL PETAMBURAN"},"geometry":{"type":"Point","coordinates":[106.798,-6.16464]}},{"id":"397","type":"Feature","properties":{"cat":"pusk","sector":"Health","name":"Puskesmas Kelurahan Grogol III","kel":"GROGOL","kec":"GROGOL PETAMBURAN"},"geometry":{"type":"Point","coordinates":[106.79377,-6.15758]}},{"id":"398","type":"Feature","properties":{"cat":"pusk","sector":"Health","name":"Puskesmas Kelurahan Jelambar I","kel":"JELAMBAR","kec":"GROGOL PETAMBURAN"},"geometry":{"type":"Point","coordinates":[106.78812,-6.16451]}},{"id":"399","type":"Feature","properties":{"cat":"pusk","sector":"Health","name":"Puskesmas Kelurahan Jelambar II","kel":"JELAMBAR","kec":"GROGOL PETAMBURAN"},"geometry":{"type":"Point","coordinates":[106.787,-6.16078]}},{"id":"400","type":"Feature","properties":{"cat":"pusk","sector":"Health","name":"Puskesmas Kelurahan Jelambar Baru","kel":"JELAMBAR BARU","kec":"GROGOL PETAMBURAN"},"geometry":{"type":"Point","coordinates":[106.78356,-6.14469]}},{"id":"401","type":"Feature","properties":{"cat":"pusk","sector":"Health","name":"Puskesmas Kelurahan Tanjung Duren Selatan","kel":"TANJUNG DUREN SELATAN","kec":"GROGOL PETAMBURAN"},"geometry":{"type":"Point","coordinates":[106.78522,-6.18049]}},{"id":"402","type":"Feature","properties":{"cat":"pusk","sector":"Health","name":"Puskesmas Kelurahan Tanjung Duren Utara","kel":"TANJUNG DUREN SELATAN","kec":"GROGOL PETAMBURAN"},"geometry":{"type":"Point","coordinates":[106.784,-6.17656]}},{"id":"403","type":"Feature","properties":{"cat":"pusk","sector":"Health","name":"Puskesmas Kelurahan Tomang","kel":"TOMANG","kec":"GROGOL PETAMBURAN"},"geometry":{"type":"Point","coordinates":[106.801,-6.17471]}},{"id":"404","type":"Feature","properties":{"cat":"pusk","sector":"Health","name":"Puskesmas Kecamatan Tambora","kel":"JEMBATAN LIMA","kec":"TAMBORA"},"geometry":{"type":"Point","coordinates":[106.80187,-6.14815]}},{"id":"405","type":"Feature","properties":{"cat":"pusk","sector":"Health","name":"Puskesmas Kelurahan Pekojan I","kel":"PEKOJAN","kec":"TAMBORA"},"geometry":{"type":"Point","coordinates":[106.80364,-6.13616]}},{"id":"406","type":"Feature","properties":{"cat":"pusk","sector":"Health","name":"Puskesmas Kelurahan Pekojan II","kel":"ROA MALAKA","kec":"TAMBORA"},"geometry":{"type":"Point","coordinates":[106.80757,-6.1328]}},{"id":"407","type":"Feature","properties":{"cat":"pusk","sector":"Health","name":"Puskesmas Kelurahan Roa Malaka","kel":"ROA MALAKA","kec":"TAMBORA"},"geometry":{"type":"Point","coordinates":[106.8075,-6.13291]}},{"id":"408","type":"Feature","properties":{"cat":"pusk","sector":"Health","name":"Puskesmas Kelurahan Tambora","kel":"TANAH SEREAL","kec":"TAMBORA"},"geometry":{"type":"Point","coordinates":[106.80842,-6.15599]}},{"id":"409","type":"Feature","properties":{"cat":"pusk","sector":"Health","name":"Puskesmas Kelurahan Angke","kel":"ANGKE","kec":"TAMBORA"},"geometry":{"type":"Point","coordinates":[106.79968,-6.14411]}},{"id":"410","type":"Feature","properties":{"cat":"pusk","sector":"Health","name":"Puskesmas Kelurahan Jembatan Besi","kel":"JEMBATAN BESI","kec":"TAMBORA"},"geometry":{"type":"Point","coordinates":[106.79546,-6.15212]}},{"id":"411","type":"Feature","properties":{"cat":"pusk","sector":"Health","name":"Puskesmas Kelurahan Duri Utara","kel":"DURI UTARA","kec":"TAMBORA"},"geometry":{"type":"Point","coordinates":[106.80578,-6.15309]}},{"id":"412","type":"Feature","properties":{"cat":"pusk","sector":"Health","name":"Puskesmas Kelurahan Kalianyar","kel":"KALI ANYAR","kec":"TAMBORA"},"geometry":{"type":"Point","coordinates":[106.79821,-6.15565]}},{"id":"413","type":"Feature","properties":{"cat":"pusk","sector":"Health","name":"Puskesmas Kelurahan Pinangsia","kel":"PINANGSIA","kec":"TAMAN SARI"},"geometry":{"type":"Point","coordinates":[106.8153,-6.13292]}},{"id":"414","type":"Feature","properties":{"cat":"pusk","sector":"Health","name":"Puskesmas Kelurahan Keagungan","kel":"KEAGUNGAN","kec":"TAMAN SARI"},"geometry":{"type":"Point","coordinates":[106.813,-6.15401]}},{"id":"415","type":"Feature","properties":{"cat":"pusk","sector":"Health","name":"Puskesmas Kelurahan Krukut II","kel":"KRUKUT","kec":"TAMAN SARI"},"geometry":{"type":"Point","coordinates":[106.81213,-6.15582]}},{"id":"416","type":"Feature","properties":{"cat":"pusk","sector":"Health","name":"Puskesmas Kelurahan Maphar","kel":"MAPHAR","kec":"TAMAN SARI"},"geometry":{"type":"Point","coordinates":[106.82,-6.15609]}},{"id":"417","type":"Feature","properties":{"cat":"pusk","sector":"Health","name":"Puskesmas Kelurahan Tamansari","kel":"TAMAN SARI","kec":"TAMAN SARI"},"geometry":{"type":"Point","coordinates":[106.82303,-6.15457]}},{"id":"418","type":"Feature","properties":{"cat":"pusk","sector":"Health","name":"Puskesmas Kecamatan Cengkareng","kel":"CENGKARENG BARAT","kec":"CENGKARENG"},"geometry":{"type":"Point","coordinates":[106.7285,-6.14424]}},{"id":"419","type":"Feature","properties":{"cat":"pusk","sector":"Health","name":"Puskesmas Kelurahan Cengkareng Timur","kel":"CENGKARENG TIMUR","kec":"CENGKARENG"},"geometry":{"type":"Point","coordinates":[106.73381,-6.14764]}},{"id":"420","type":"Feature","properties":{"cat":"pusk","sector":"Health","name":"Puskesmas Kelurahan Cengkareng Barat I","kel":"CENGKARENG BARAT","kec":"CENGKARENG"},"geometry":{"type":"Point","coordinates":[106.72719,-6.13098]}},{"id":"421","type":"Feature","properties":{"cat":"pusk","sector":"Health","name":"Puskesmas Kelurahan Cengkareng Barat II","kel":"CENGKARENG BARAT","kec":"CENGKARENG"},"geometry":{"type":"Point","coordinates":[106.72823,-6.14397]}},{"id":"422","type":"Feature","properties":{"cat":"pusk","sector":"Health","name":"Puskesmas Kelurahan Kapuk I","kel":"KAPUK MUARA","kec":"PENJARINGAN"},"geometry":{"type":"Point","coordinates":[106.76164,-6.13832]}},{"id":"423","type":"Feature","properties":{"cat":"pusk","sector":"Health","name":"Puskesmas Kelurahan Kapuk II","kel":"KAPUK","kec":"CENGKARENG"},"geometry":{"type":"Point","coordinates":[106.76171,-6.1385]}},{"id":"424","type":"Feature","properties":{"cat":"pusk","sector":"Health","name":"Puskesmas Kelurahan Kedaung Kaliangke","kel":"KEDAUNG KALI ANGKE","kec":"CENGKARENG"},"geometry":{"type":"Point","coordinates":[106.75819,-6.15629]}},{"id":"425","type":"Feature","properties":{"cat":"pusk","sector":"Health","name":"Puskesmas Kelurahan Duri Kosambi I","kel":"DURI KOSAMBI","kec":"CENGKARENG"},"geometry":{"type":"Point","coordinates":[106.72009,-6.18062]}},{"id":"426","type":"Feature","properties":{"cat":"pusk","sector":"Health","name":"Puskesmas Kelurahan Duri Kosambi II","kel":"RAWA BUAYA","kec":"CENGKARENG"},"geometry":{"type":"Point","coordinates":[106.72945,-6.15922]}},{"id":"427","type":"Feature","properties":{"cat":"pusk","sector":"Health","name":"Puskesmas Kecamatan Kalideres","kel":"PEGADUNGAN","kec":"KALI DERES"},"geometry":{"type":"Point","coordinates":[106.69647,-6.12995]}},{"id":"428","type":"Feature","properties":{"cat":"pusk","sector":"Health","name":"Puskesmas Kelurahan Semanan I","kel":"SEMANAN","kec":"KALI DERES"},"geometry":{"type":"Point","coordinates":[106.70501,-6.1594]}},{"id":"429","type":"Feature","properties":{"cat":"pusk","sector":"Health","name":"Puskesmas Kelurahan Semanan II","kel":"SEMANAN","kec":"KALI DERES"},"geometry":{"type":"Point","coordinates":[106.70367,-6.16763]}},{"id":"430","type":"Feature","properties":{"cat":"pusk","sector":"Health","name":"Puskesmas Kelurahan Kamal","kel":"KAMAL","kec":"KALI DERES"},"geometry":{"type":"Point","coordinates":[106.70778,-6.1028]}},{"id":"431","type":"Feature","properties":{"cat":"pusk","sector":"Health","name":"Puskesmas Kelurahan Tegal Alur I","kel":"TEGAL ALUR","kec":"KALI DERES"},"geometry":{"type":"Point","coordinates":[106.71854,-6.11862]}},{"id":"432","type":"Feature","properties":{"cat":"pusk","sector":"Health","name":"Puskesmas Kelurahan Tegal Alur II","kel":"CENGKARENG BARAT","kec":"CENGKARENG"},"geometry":{"type":"Point","coordinates":[106.71983,-6.12759]}},{"id":"433","type":"Feature","properties":{"cat":"pusk","sector":"Health","name":"Puskesmas Kelurahan Tegal Alur III","kel":"TEGAL ALUR","kec":"KALI DERES"},"geometry":{"type":"Point","coordinates":[106.72337,-6.11871]}},{"id":"434","type":"Feature","properties":{"cat":"pusk","sector":"Health","name":"Puskesmas Kelurahan Pegadungan I","kel":"PEGADUNGAN","kec":"KALI DERES"},"geometry":{"type":"Point","coordinates":[106.70311,-6.13917]}},{"id":"435","type":"Feature","properties":{"cat":"pusk","sector":"Health","name":"Puskesmas Kelurahan Pegadungan II","kel":"PEGADUNGAN","kec":"KALI DERES"},"geometry":{"type":"Point","coordinates":[106.69598,-6.13021]}},{"id":"436","type":"Feature","properties":{"cat":"pusk","sector":"Health","name":"Puskesmas Kelurahan Pegadungan III","kel":"PEGADUNGAN","kec":"KALI DERES"},"geometry":{"type":"Point","coordinates":[106.69739,-6.14162]}},{"id":"437","type":"Feature","properties":{"cat":"pusk","sector":"Health","name":"Puskesmas Kelurahan Pegadungan IV","kel":"PEGADUNGAN","kec":"KALI DERES"},"geometry":{"type":"Point","coordinates":[106.71133,-6.14222]}},{"id":"438","type":"Feature","properties":{"cat":"pusk","sector":"Health","name":"Puskesmas Kelurahan Kalideres","kel":"PEGADUNGAN","kec":"KALI DERES"},"geometry":{"type":"Point","coordinates":[106.70384,-6.12636]}},{"id":"439","type":"Feature","properties":{"cat":"pusk","sector":"Health","name":"Puskesmas Kelurahan Kamal II","kel":"KAMAL","kec":"KALI DERES"},"geometry":{"type":"Point","coordinates":[106.70054,-6.10574]}},{"id":"440","type":"Feature","properties":{"cat":"pusk","sector":"Health","name":"Puskesmas Kecamatan Penjaringan","kel":"PEJAGALAN","kec":"PENJARINGAN"},"geometry":{"type":"Point","coordinates":[106.78076,-6.13819]}},{"id":"441","type":"Feature","properties":{"cat":"pusk","sector":"Health","name":"Puskesmas Kelurahan Kamal Muara","kel":"KAMAL MUARA","kec":"PENJARINGAN"},"geometry":{"type":"Point","coordinates":[106.72078,-6.09456]}},{"id":"442","type":"Feature","properties":{"cat":"pusk","sector":"Health","name":"Puskesmas Kelurahan Kapuk Muara","kel":"KAPUK MUARA","kec":"PENJARINGAN"},"geometry":{"type":"Point","coordinates":[106.76383,-6.13594]}},{"id":"443","type":"Feature","properties":{"cat":"pusk","sector":"Health","name":"Puskesmas Kelurahan Pejagalan","kel":"PEJAGALAN","kec":"PENJARINGAN"},"geometry":{"type":"Point","coordinates":[106.77924,-6.13292]}},{"id":"444","type":"Feature","properties":{"cat":"pusk","sector":"Health","name":"Puskesmas Kelurahan Penjaringan I","kel":"PENJARINGAN","kec":"PENJARINGAN"},"geometry":{"type":"Point","coordinates":[106.80066,-6.1256]}},{"id":"445","type":"Feature","properties":{"cat":"pusk","sector":"Health","name":"Puskesmas Kelurahan Penjaringan II","kel":"PENJARINGAN","kec":"PENJARINGAN"},"geometry":{"type":"Point","coordinates":[106.80273,-6.13159]}},{"id":"446","type":"Feature","properties":{"cat":"pusk","sector":"Health","name":"Puskesmas Kelurahan Pluit","kel":"PLUIT","kec":"PENJARINGAN"},"geometry":{"type":"Point","coordinates":[106.771,-6.11212]}},{"id":"447","type":"Feature","properties":{"cat":"pusk","sector":"Health","name":"Puskesmas Kecamatan Pademangan","kel":"PADEMANGAN BARAT","kec":"PADEMANGAN"},"geometry":{"type":"Point","coordinates":[106.84032,-6.1329]}},{"id":"448","type":"Feature","properties":{"cat":"pusk","sector":"Health","name":"Puskesmas Kelurahan Ancol","kel":"ANCOL","kec":"PADEMANGAN"},"geometry":{"type":"Point","coordinates":[106.82033,-6.11726]}},{"id":"449","type":"Feature","properties":{"cat":"pusk","sector":"Health","name":"Puskesmas Kelurahan Pademangan Barat I","kel":"PADEMANGAN BARAT","kec":"PADEMANGAN"},"geometry":{"type":"Point","coordinates":[106.83486,-6.13726]}},{"id":"450","type":"Feature","properties":{"cat":"pusk","sector":"Health","name":"Puskesmas Kelurahan Pademangan Barat II","kel":"PADEMANGAN BARAT","kec":"PADEMANGAN"},"geometry":{"type":"Point","coordinates":[106.83821,-6.1352]}},{"id":"451","type":"Feature","properties":{"cat":"pusk","sector":"Health","name":"Puskesmas Kecamatan Tanjung Priok","kel":"PAPANGGO","kec":"TANJUNG PRIOK"},"geometry":{"type":"Point","coordinates":[106.87881,-6.12712]}},{"id":"452","type":"Feature","properties":{"cat":"pusk","sector":"Health","name":"Puskesmas Kelurahan Sunter Jaya I","kel":"SUNTER JAYA","kec":"TANJUNG PRIOK"},"geometry":{"type":"Point","coordinates":[106.86648,-6.15549]}},{"id":"453","type":"Feature","properties":{"cat":"pusk","sector":"Health","name":"Puskesmas Kelurahan Sunter Jaya II","kel":"SUNTER JAYA","kec":"TANJUNG PRIOK"},"geometry":{"type":"Point","coordinates":[106.87192,-6.15267]}},{"id":"454","type":"Feature","properties":{"cat":"pusk","sector":"Health","name":"Puskesmas Kelurahan Sungai Bambu","kel":"SUNGAI BAMBU","kec":"TANJUNG PRIOK"},"geometry":{"type":"Point","coordinates":[106.88613,-6.12846]}},{"id":"455","type":"Feature","properties":{"cat":"pusk","sector":"Health","name":"Puskesmas Kelurahan Kebon Bawang I","kel":"KEBON BAWANG","kec":"TANJUNG PRIOK"},"geometry":{"type":"Point","coordinates":[106.88748,-6.12406]}},{"id":"456","type":"Feature","properties":{"cat":"pusk","sector":"Health","name":"Puskesmas Kelurahan Kebon Bawang II","kel":"KEBON BAWANG","kec":"TANJUNG PRIOK"},"geometry":{"type":"Point","coordinates":[106.88986,-6.12479]}},{"id":"457","type":"Feature","properties":{"cat":"pusk","sector":"Health","name":"Puskesmas Kelurahan Kebon Bawang III","kel":"KEBON BAWANG","kec":"TANJUNG PRIOK"},"geometry":{"type":"Point","coordinates":[106.88497,-6.12608]}},{"id":"458","type":"Feature","properties":{"cat":"pusk","sector":"Health","name":"Puskesmas Kelurahan Tanjung Priok","kel":"TANJUNG PRIOK","kec":"TANJUNG PRIOK"},"geometry":{"type":"Point","coordinates":[106.87699,-6.11575]}},{"id":"459","type":"Feature","properties":{"cat":"pusk","sector":"Health","name":"Puskesmas Kelurahan Sunter Agung I","kel":"SUNTER AGUNG","kec":"TANJUNG PRIOK"},"geometry":{"type":"Point","coordinates":[106.85694,-6.12967]}},{"id":"460","type":"Feature","properties":{"cat":"pusk","sector":"Health","name":"Puskesmas Kelurahan Sunter Agung II","kel":"SUNTER AGUNG","kec":"TANJUNG PRIOK"},"geometry":{"type":"Point","coordinates":[106.8618,-6.14237]}},{"id":"461","type":"Feature","properties":{"cat":"pusk","sector":"Health","name":"Puskesmas Kelurahan Sunter Agung III","kel":"SUNTER AGUNG","kec":"TANJUNG PRIOK"},"geometry":{"type":"Point","coordinates":[106.87,-6.13647]}},{"id":"462","type":"Feature","properties":{"cat":"pusk","sector":"Health","name":"Puskesmas Kelurahan Warakas","kel":"WARAKAS","kec":"TANJUNG PRIOK"},"geometry":{"type":"Point","coordinates":[106.87551,-6.12057]}},{"id":"463","type":"Feature","properties":{"cat":"pusk","sector":"Health","name":"Puskesmas Kelurahan Papanggo II","kel":"PAPANGGO","kec":"TANJUNG PRIOK"},"geometry":{"type":"Point","coordinates":[106.87216,-6.1299]}},{"id":"464","type":"Feature","properties":{"cat":"pusk","sector":"Health","name":"Puskesmas Kecamatan Koja","kel":"TUGU UTARA","kec":"KOJA"},"geometry":{"type":"Point","coordinates":[106.9093,-6.12522]}},{"id":"465","type":"Feature","properties":{"cat":"pusk","sector":"Health","name":"Puskesmas Kelurahan Lagoa","kel":"LAGOA","kec":"KOJA"},"geometry":{"type":"Point","coordinates":[106.91105,-6.11205]}},{"id":"466","type":"Feature","properties":{"cat":"pusk","sector":"Health","name":"Puskesmas Kelurahan Tugu Utara III","kel":"TUGU UTARA","kec":"KOJA"},"geometry":{"type":"Point","coordinates":[106.91741,-6.11973]}},{"id":"467","type":"Feature","properties":{"cat":"pusk","sector":"Health","name":"Puskesmas Kelurahan Tugu Selatan","kel":"TUGU SELATAN","kec":"KOJA"},"geometry":{"type":"Point","coordinates":[106.90797,-6.13296]}},{"id":"468","type":"Feature","properties":{"cat":"pusk","sector":"Health","name":"Puskesmas Kelurahan Rawa Badak Utara II","kel":"RAWA BADAK UTARA","kec":"KOJA"},"geometry":{"type":"Point","coordinates":[106.89734,-6.11791]}},